{
    "city_name": "台北市",
    "stores": [
        {
            "name": "北市士大店",
            "address": "台北市士林區111大東路7號",
            "phone": "02-28835400",
            "lat": 25.086500167847,
            "lng": 121.52500152588,
            "service": "提款服務,悠遊卡加值,咖啡機,相片沖洗機,Life-ET(購票)服務,一卡通",
            "_id": "400",
            "id": "3471"
        },
        {
            "name": "北市銘傳店",
            "address": "台北市士林區111中山北路5段250號",
            "phone": "02-28838738",
            "lat": 25.086799621582,
            "lng": 121.52799987793,
            "service": "悠遊卡加值,咖啡機,Life-ET(購票)服務,一卡通",
            "_id": "471",
            "id": "3626"
        },
        {
            "name": "北市士銓店",
            "address": "台北市士林區111中山北路七段186號",
            "phone": "02-28716933",
            "lat": 25.124599456787,
            "lng": 121.53299713135,
            "service": "提款服務,悠遊卡加值,咖啡機,Life-ET(購票)服務,一卡通",
            "_id": "1175",
            "id": "3062"
        },
        {
            "name": "北市天福店",
            "address": "台北市士林區111中山北路六段431之4號1樓",
            "phone": "02-89781406",
            "lat": 25.11429977417,
            "lng": 121.52700042725,
            "service": "提款服務,悠遊卡加值,咖啡機,Life-ET(購票)服務,一卡通",
            "_id": "787",
            "id": "4108"
        },
        {
            "name": "北市士海店",
            "address": "台北市士林區111延平北路9段212號",
            "phone": "02-28106275",
            "lat": 25.108400344849,
            "lng": 121.47100067139,
            "service": "悠遊卡加值,咖啡機,相片沖洗機,Life-ET(購票)服務",
            "_id": "411",
            "id": "3509"
        },
        {
            "name": "北市延平二店",
            "address": "台北市士林區111延平北路五段138號",
            "phone": "02-28163391",
            "lat": 25.08219909668,
            "lng": 121.51000213623,
            "service": "提款服務,悠遊卡加值,Life-ET(購票)服務,一卡通",
            "_id": "993",
            "id": "D043"
        },
        {
            "name": "北市開利店",
            "address": "台北市士林區111社子街142,144號",
            "phone": "02-28161982",
            "lat": 25.088499069214,
            "lng": 121.50499725342,
            "service": "悠遊卡加值,咖啡機,Life-ET(購票)服務,一卡通",
            "_id": "951",
            "id": "A753"
        },
        {
            "name": "北市社子店",
            "address": "台北市士林區111社子街63巷2號",
            "phone": "02-28161783",
            "lat": 25.08749961853,
            "lng": 121.50700378418,
            "service": "提款服務,悠遊卡加值,咖啡機,相片沖洗機,Life-ET(購票)服務,一卡通",
            "_id": "941",
            "id": "A163"
        },
        {
            "name": "北市社正店",
            "address": "台北市士林區111社正路27號",
            "phone": "02-28163841",
            "lat": 25.088800430298,
            "lng": 121.50900268555,
            "service": "提款服務,悠遊卡加值,咖啡機,相片沖洗機,Life-ET(購票)服務,一卡通",
            "_id": "940",
            "id": "A067"
        },
        {
            "name": "北市士慶店",
            "address": "台北市士林區111社正路75號",
            "phone": "02-28167988",
            "lat": 25.089099884033,
            "lng": 121.51100158691,
            "service": "提款服務,悠遊卡加值,咖啡機,Life-ET(購票)服務",
            "_id": "1114",
            "id": "2755"
        },
        {
            "name": "北市士陽店",
            "address": "台北市士林區111雨聲街105號",
            "phone": "02-28328682",
            "lat": 25.10530090332,
            "lng": 121.53199768066,
            "service": "悠遊卡加值,咖啡機,Life-ET(購票)服務,一卡通",
            "_id": "381",
            "id": "3433"
        },
        {
            "name": "北市承德店",
            "address": "台北市士林區111劍潭路62號",
            "phone": "02-28854784",
            "lat": 25.083299636841,
            "lng": 121.52100372314,
            "service": "提款服務,悠遊卡加值,咖啡機,Life-ET(購票)服務,一卡通",
            "_id": "1240",
            "id": "E050"
        },
        {
            "name": "北市京站二店",
            "address": "台北市大同區103市民大道一段209號",
            "phone": "",
            "lat": 25.04878616333,
            "lng": 121.51856994629,
            "service": "",
            "_id": "501",
            "id": "3684"
        },
        {
            "name": "北市同京店",
            "address": "台北市大同區103西寧北路35號",
            "phone": "02-25593676",
            "lat": 25.053499221802,
            "lng": 121.50900268555,
            "service": "提款服務,悠遊卡加值,咖啡機,Life-ET(購票)服務,一卡通",
            "_id": "210",
            "id": "2845"
        },
        {
            "name": "北市延年店",
            "address": "台北市大同區103延平北路3段40號",
            "phone": "02-25995907",
            "lat": 25.064699172974,
            "lng": 121.51100158691,
            "service": "提款服務,悠遊卡加值,咖啡機,Life-ET(購票)服務,一卡通",
            "_id": "476",
            "id": "3633"
        },
        {
            "name": "北市同達店",
            "address": "台北市大同區103延平北路二段114.116.118號及民生西路335號",
            "phone": "02-25504097",
            "lat": 25.056999206543,
            "lng": 121.51100158691,
            "service": "提款服務,悠遊卡加值,咖啡機,相片沖洗機,Life-ET(購票)服務,一卡通",
            "_id": "1132",
            "id": "2792"
        },
        {
            "name": "北市延平店",
            "address": "台北市大同區103延平北路二段255-1號",
            "phone": "02-25575754",
            "lat": 25.0625,
            "lng": 121.51100158691,
            "service": "提款服務,悠遊卡加值,相片沖洗機,Life-ET(購票)服務,一卡通",
            "_id": "988",
            "id": "D010"
        },
        {
            "name": "北市京承店",
            "address": "台北市大同區103承德路一段1號",
            "phone": "02-25526312",
            "lat": 25.049299240112,
            "lng": 121.5179977417,
            "service": "悠遊卡加值,咖啡機,Life-ET(購票)服務,一卡通",
            "_id": "502",
            "id": "3685"
        },
        {
            "name": "北市京站店",
            "address": "台北市大同區103承德路一段1號",
            "phone": "02-25526735 ",
            "lat": 25.049200057983,
            "lng": 121.5179977417,
            "service": "悠遊卡加值,咖啡機,相片沖洗機,Life-ET(購票)服務,一卡通",
            "_id": "500",
            "id": "3683"
        },
        {
            "name": "北市同承店",
            "address": "台北市大同區103承德路三段284及286號",
            "phone": "02-89782049",
            "lat": 25.073900222778,
            "lng": 121.51899719238,
            "service": "提款服務,悠遊卡加值,咖啡機,相片沖洗機,Life-ET(購票)服務,一卡通",
            "_id": "890",
            "id": "4232"
        },
        {
            "name": "北市同吉店",
            "address": "台北市大同區103昌吉街63號",
            "phone": "02-25994526",
            "lat": 25.065999984741,
            "lng": 121.51499938965,
            "service": "悠遊卡加值,Life-ET(購票)服務,一卡通",
            "_id": "80",
            "id": "2389"
        },
        {
            "name": "北市同蝶店",
            "address": "台北市大同區103南京西路30號",
            "phone": "02-25553142",
            "lat": 25.052600860596,
            "lng": 121.51999664307,
            "service": "提款服務,悠遊卡加值,咖啡機,相片沖洗機,Life-ET(購票)服務",
            "_id": "1187",
            "id": "3088"
        },
        {
            "name": "北市衣蝶店",
            "address": "台北市大同區103南京西路63號",
            "phone": "02-25506216",
            "lat": 25.053100585938,
            "lng": 121.51899719238,
            "service": "一卡通",
            "_id": "63",
            "id": "2174"
        },
        {
            "name": "北市雙蝶店",
            "address": "台北市大同區103南京西路64巷9弄2號",
            "phone": "02-25592638",
            "lat": 25.052499771118,
            "lng": 121.51899719238,
            "service": "提款服務,悠遊卡加值,咖啡機,Life-ET(購票)服務,一卡通",
            "_id": "445",
            "id": "3570"
        },
        {
            "name": "北市同密店",
            "address": "台北市大同區103哈密街59巷21號",
            "phone": "02-25963370",
            "lat": 25.074699401855,
            "lng": 121.51599884033,
            "service": "提款服務,悠遊卡加值,咖啡機,Life-ET(購票)服務,一卡通",
            "_id": "1091",
            "id": "2707"
        },
        {
            "name": "北市迪化二店",
            "address": "台北市大同區103迪化街一段50號",
            "phone": "",
            "lat": 25.055210113525,
            "lng": 121.50999450684,
            "service": "",
            "_id": "126",
            "id": "2524"
        },
        {
            "name": "北市迪化店",
            "address": "台北市大同區103迪化街一段50號",
            "phone": "02-25597059",
            "lat": 25.055099487305,
            "lng": 121.51000213623,
            "service": "提款服務,悠遊卡加值,咖啡機,相片沖洗機,霜淇淋機,Life-ET(購票)服務,一卡通",
            "_id": "1241",
            "id": "E090"
        },
        {
            "name": "北市同慶店",
            "address": "台北市大同區103重慶北路一段24號",
            "phone": "02-25569380",
            "lat": 25.05060005188,
            "lng": 121.51300048828,
            "service": "提款服務,悠遊卡加值,咖啡機,Life-ET(購票)服務,一卡通",
            "_id": "261",
            "id": "2985"
        },
        {
            "name": "北市同安店",
            "address": "台北市大同區103重慶北路一段63號",
            "phone": "02-25597209",
            "lat": 25.051599502563,
            "lng": 121.51399993896,
            "service": "提款服務,悠遊卡加值,咖啡機,Life-ET(購票)服務",
            "_id": "1182",
            "id": "3080"
        },
        {
            "name": "北市圓捷店",
            "address": "台北市大同區103酒泉街15號",
            "phone": "02-25958123",
            "lat": 25.07080078125,
            "lng": 121.51999664307,
            "service": "提款服務,悠遊卡加值,咖啡機,Life-ET(購票)服務,一卡通",
            "_id": "503",
            "id": "3686"
        },
        {
            "name": "北市甘州店",
            "address": "台北市大同區103歸綏街183號",
            "phone": "02-25531490",
            "lat": 25.058300018311,
            "lng": 121.51300048828,
            "service": "提款服務,悠遊卡加值,Life-ET(購票)服務,一卡通",
            "_id": "1242",
            "id": "E100"
        },
        {
            "name": "北市安敦店",
            "address": "台北市大安區106仁愛路4段112巷7號",
            "phone": "02-27056643",
            "lat": 25.036800384521,
            "lng": 121.55000305176,
            "service": "提款服務,悠遊卡加值,咖啡機,相片沖洗機,Life-ET(購票)服務",
            "_id": "417",
            "id": "3523"
        },
        {
            "name": "北市安平店",
            "address": "台北市大安區106仁愛路4段300巷15號",
            "phone": "02-27015782",
            "lat": 25.036699295044,
            "lng": 121.55500030518,
            "service": "提款服務,悠遊卡加值,咖啡機,相片沖洗機,Life-ET(購票)服務,一卡通",
            "_id": "1110",
            "id": "2745"
        },
        {
            "name": "北市安國店",
            "address": "台北市大安區106光復南路290巷25號,25-1號",
            "phone": "02-87737295",
            "lat": 25.039100646973,
            "lng": 121.55599975586,
            "service": "提款服務,悠遊卡加值,咖啡機,相片沖洗機,Life-ET(購票)服務,一卡通",
            "_id": "1070",
            "id": "2316"
        },
        {
            "name": "北市安聯店",
            "address": "台北市大安區106光復南路98號之3之5",
            "phone": "02-27118945",
            "lat": 25.044099807739,
            "lng": 121.55799865723,
            "service": "提款服務,悠遊卡加值,咖啡機,Life-ET(購票)服務",
            "_id": "477",
            "id": "3638"
        },
        {
            "name": "北市居安店",
            "address": "台北市大安區106安居街15號",
            "phone": "02-89786747",
            "lat": 25.020900726318,
            "lng": 121.55500030518,
            "service": "提款服務,悠遊卡加值,咖啡機,相片沖洗機,Life-ET(購票)服務,一卡通",
            "_id": "846",
            "id": "4177"
        },
        {
            "name": "北市安震店",
            "address": "台北市大安區106安東街50之2、50之3，50之4號",
            "phone": "02-87735690",
            "lat": 25.042999267578,
            "lng": 121.54199981689,
            "service": "提款服務,悠遊卡加值,咖啡機,相片沖洗機,Life-ET(購票)服務,一卡通",
            "_id": "1061",
            "id": "2299"
        },
        {
            "name": "北市安盈店",
            "address": "台北市大安區106和平東路1段129號",
            "phone": "02-33938582",
            "lat": 25.026899337769,
            "lng": 121.52899932861,
            "service": "提款服務,悠遊卡加值,咖啡機,相片沖洗機,Life-ET(購票)服務",
            "_id": "421",
            "id": "3528"
        },
        {
            "name": "北市師範店",
            "address": "台北市大安區106和平東路1段162號(國立師範大學樂智樓一樓部分)",
            "phone": "02-83695672",
            "lat": 25.026100158691,
            "lng": 121.52799987793,
            "service": "提款服務,悠遊卡加值,咖啡機,相片沖洗機,Life-ET(購票)服務,一卡通",
            "_id": "521",
            "id": "3718"
        },
        {
            "name": "北市安華店",
            "address": "台北市大安區106延吉街131巷43號",
            "phone": "02-87721026",
            "lat": 25.042900085449,
            "lng": 121.55599975586,
            "service": "提款服務,悠遊卡加值,咖啡機,相片沖洗機,Life-ET(購票)服務,一卡通",
            "_id": "107",
            "id": "2479"
        },
        {
            "name": "北市安皓店",
            "address": "台北市大安區106忠孝東路4段181巷8號",
            "phone": "02-27313685",
            "lat": 25.041900634766,
            "lng": 121.55100250244,
            "service": "提款服務,悠遊卡加值,咖啡機,Life-ET(購票)服務,一卡通",
            "_id": "1133",
            "id": "2793"
        },
        {
            "name": "北市安孝店",
            "address": "台北市大安區106忠孝東路三段287號",
            "phone": "02-27752407",
            "lat": 25.041799545288,
            "lng": 121.54299926758,
            "service": "提款服務,悠遊卡加值,咖啡機,相片沖洗機,Life-ET(購票)服務",
            "_id": "350",
            "id": "3351"
        },
        {
            "name": "北市杭州店",
            "address": "台北市大安區106杭州南路二段5號",
            "phone": "02-23579306",
            "lat": 25.03450012207,
            "lng": 121.5240020752,
            "service": "提款服務,悠遊卡加值,咖啡機,Life-ET(購票)服務,一卡通",
            "_id": "1",
            "id": "2001"
        },
        {
            "name": "北市東方二店",
            "address": "台北市大安區106信義路四段186巷8號",
            "phone": "",
            "lat": 25.032234191895,
            "lng": 121.55145263672,
            "service": "",
            "_id": "536",
            "id": "3744"
        },
        {
            "name": "北市東方店",
            "address": "台北市大安區106信義路四段186巷8號(原福利社位置)",
            "phone": "02-89783470",
            "lat": 25.032199859619,
            "lng": 121.55100250244,
            "service": "悠遊卡加值,Life-ET(購票)服務,一卡通",
            "_id": "535",
            "id": "3742"
        },
        {
            "name": "北市安建店",
            "address": "台北市大安區106建國南路一段337號",
            "phone": "02-27035357",
            "lat": 25.03450012207,
            "lng": 121.53800201416,
            "service": "提款服務,悠遊卡加值,咖啡機,Life-ET(購票)服務,一卡通",
            "_id": "182",
            "id": "2639"
        },
        {
            "name": "北市安興店",
            "address": "台北市大安區106復興南路2段148號1樓全部",
            "phone": "02-89783502",
            "lat": 25.028299331665,
            "lng": 121.54299926758,
            "service": "提款服務,悠遊卡加值,咖啡機,相片沖洗機,Life-ET(購票)服務,一卡通",
            "_id": "692",
            "id": "3979"
        },
        {
            "name": "北市安復店",
            "address": "台北市大安區106復興南路一段135巷21號",
            "phone": "02-27775060",
            "lat": 25.042699813843,
            "lng": 121.54499816895,
            "service": "提款服務,悠遊卡加值,咖啡機,Life-ET(購票)服務,一卡通",
            "_id": "92",
            "id": "2421"
        },
        {
            "name": "北市臨江店",
            "address": "台北市大安區106臨江街40巷2號",
            "phone": "02-27353630",
            "lat": 25.029600143433,
            "lng": 121.55599975586,
            "service": "提款服務,悠遊卡加值,咖啡機,Life-ET(購票)服務,一卡通",
            "_id": "314",
            "id": "3271"
        },
        {
            "name": "北市羅斯福店",
            "address": "台北市大安區106羅斯福路二段75之1號",
            "phone": "02-23646860",
            "lat": 25.026500701904,
            "lng": 121.52300262451,
            "service": "提款服務,悠遊卡加值,咖啡機,相片沖洗機,Life-ET(購票)服務,一卡通",
            "_id": "66",
            "id": "2182"
        },
        {
            "name": "北市羅捷店",
            "address": "台北市大安區106羅斯福路三段297號一樓",
            "phone": "02-89781423",
            "lat": 25.017599105835,
            "lng": 121.53199768066,
            "service": "",
            "_id": "877",
            "id": "4217"
        },
        {
            "name": "北市中山店",
            "address": "台北市中山區104中山北路二段137巷2號",
            "phone": "02-25643046",
            "lat": 25.061599731445,
            "lng": 121.5240020752,
            "service": "提款服務,悠遊卡加值,Life-ET(購票)服務,一卡通",
            "_id": "957",
            "id": "B044"
        },
        {
            "name": "北市中山三店",
            "address": "台北市中山區104中山北路二段65巷13號",
            "phone": "02-25602093",
            "lat": 25.057100296021,
            "lng": 121.5240020752,
            "service": "提款服務,悠遊卡加值,咖啡機,相片沖洗機,Life-ET(購票)服務,一卡通",
            "_id": "967",
            "id": "B697"
        },
        {
            "name": "北市大同店",
            "address": "台北市中山區104中山北路三段40號",
            "phone": "02-25956355",
            "lat": 25.066999435425,
            "lng": 121.52200317383,
            "service": "提款服務,悠遊卡加值,咖啡機,相片沖洗機,Life-ET(購票)服務,一卡通",
            "_id": "302",
            "id": "3225"
        },
        {
            "name": "北市中原二店",
            "address": "台北市中山區104中原街77號",
            "phone": "02-25111996",
            "lat": 25.059099197388,
            "lng": 121.52899932861,
            "service": "提款服務,悠遊卡加值,咖啡機,相片沖洗機,Life-ET(購票)服務,一卡通",
            "_id": "960",
            "id": "B098"
        },
        {
            "name": "北市山擎店",
            "address": "台北市中山區104天祥路70號",
            "phone": "02-25315352",
            "lat": 25.0625,
            "lng": 121.52100372314,
            "service": "提款服務,悠遊卡加值,咖啡機,相片沖洗機,Life-ET(購票)服務,一卡通",
            "_id": "388",
            "id": "3449"
        },
        {
            "name": "北市民生店",
            "address": "台北市中山區104民生西路2號",
            "phone": "02-25319601",
            "lat": 25.057699203491,
            "lng": 121.52200317383,
            "service": "提款服務,悠遊卡加值,咖啡機,相片沖洗機,Life-ET(購票)服務,一卡通",
            "_id": "958",
            "id": "B048"
        },
        {
            "name": "北市馬偕店",
            "address": "台北市中山區104民生西路3巷2號",
            "phone": "02-25118262",
            "lat": 25.058099746704,
            "lng": 121.52200317383,
            "service": "提款服務,悠遊卡加值,咖啡機,相片沖洗機,Life-ET(購票)服務,一卡通",
            "_id": "968",
            "id": "B876"
        },
        {
            "name": "北市雙連店",
            "address": "台北市中山區104民生西路62號",
            "phone": "02-25253009",
            "lat": 25.057600021362,
            "lng": 121.52100372314,
            "service": "提款服務,悠遊卡加值,咖啡機,Life-ET(購票)服務,一卡通",
            "_id": "40",
            "id": "2115"
        },
        {
            "name": "北市榮輝店",
            "address": "台北市中山區104民權東路3段7號",
            "phone": "02-25170865",
            "lat": 25.0625,
            "lng": 121.54100036621,
            "service": "提款服務,悠遊卡加值,咖啡機,相片沖洗機,Life-ET(購票)服務,一卡通",
            "_id": "379",
            "id": "3421"
        },
        {
            "name": "北市鑫林森店",
            "address": "台北市中山區104林森北路101號",
            "phone": "02-89787591",
            "lat": 25.049999237061,
            "lng": 121.52500152588,
            "service": "悠遊卡加值,咖啡機,相片沖洗機,Life-ET(購票)服務",
            "_id": "841",
            "id": "4172"
        },
        {
            "name": "北市慶泰店",
            "address": "台北市中山區104松江路186之1號",
            "phone": "02-25427179",
            "lat": 25.056699752808,
            "lng": 121.53299713135,
            "service": "提款服務,悠遊卡加值,咖啡機,Life-ET(購票)服務",
            "_id": "969",
            "id": "B955"
        },
        {
            "name": "北市永捷店",
            "address": "台北市中山區104松江路27號",
            "phone": "02-25048276",
            "lat": 25.047199249268,
            "lng": 121.53299713135,
            "service": "提款服務,悠遊卡加值,咖啡機,相片沖洗機,Life-ET(購票)服務,一卡通",
            "_id": "630",
            "id": "3899"
        },
        {
            "name": "北市長松店",
            "address": "台北市中山區104松江路50號",
            "phone": "02-89783405",
            "lat": 25.048299789429,
            "lng": 121.53299713135,
            "service": "提款服務,悠遊卡加值,咖啡機,相片沖洗機,Life-ET(購票)服務",
            "_id": "747",
            "id": "4055"
        },
        {
            "name": "北市山榮店",
            "address": "台北市中山區104長安東路二段118號",
            "phone": "02-25084208",
            "lat": 25.048299789429,
            "lng": 121.53600311279,
            "service": "提款服務,悠遊卡加值,咖啡機,Life-ET(購票)服務,一卡通",
            "_id": "1092",
            "id": "2710"
        },
        {
            "name": "北市山寧店",
            "address": "台北市中山區104長安東路二段171-7號",
            "phone": "02-27775377",
            "lat": 25.048400878906,
            "lng": 121.54199981689,
            "service": "提款服務,悠遊卡加值,咖啡機,Life-ET(購票)服務,一卡通",
            "_id": "87",
            "id": "2407"
        },
        {
            "name": "北市山華店",
            "address": "台北市中山區104長春路208號",
            "phone": "02-25170029",
            "lat": 25.054599761963,
            "lng": 121.53700256348,
            "service": "提款服務,悠遊卡加值,咖啡機,Life-ET(購票)服務,一卡通",
            "_id": "95",
            "id": "2425"
        },
        {
            "name": "北市山德店",
            "address": "台北市中山區104德惠街109號",
            "phone": "02-25973380",
            "lat": 25.066699981689,
            "lng": 121.52899932861,
            "service": "提款服務,悠遊卡加值,咖啡機,Life-ET(購票)服務",
            "_id": "214",
            "id": "2860"
        },
        {
            "name": "北市新喜店",
            "address": "台北市中山區104德惠街167巷2號",
            "phone": "02-25958696",
            "lat": 25.066600799561,
            "lng": 121.53199768066,
            "service": "提款服務,悠遊卡加值,咖啡機,相片沖洗機,Life-ET(購票)服務,一卡通",
            "_id": "16",
            "id": "2051"
        },
        {
            "name": "北市台泥店",
            "address": "台北市中山區104錦州街32號",
            "phone": "02-25676116",
            "lat": 25.060199737549,
            "lng": 121.52500152588,
            "service": "提款服務,悠遊卡加值,咖啡機,Life-ET(購票)服務,一卡通",
            "_id": "963",
            "id": "B243"
        },
        {
            "name": "北市三創店",
            "address": "台北市中正區100八德路一段46號1樓",
            "phone": "02-89781940",
            "lat": 25.043699264526,
            "lng": 121.53099822998,
            "service": "提款服務,悠遊卡加值,咖啡機,Life-ET(購票)服務,一卡通",
            "_id": "935",
            "id": "4307"
        },
        {
            "name": "北市秋葉原店",
            "address": "台北市中正區100八德路一段82巷10號",
            "phone": "02-89783142",
            "lat": 25.043699264526,
            "lng": 121.53199768066,
            "service": "提款服務,悠遊卡加值,咖啡機,Life-ET(購票)服務",
            "_id": "885",
            "id": "4227"
        },
        {
            "name": "北市正童店",
            "address": "台北市中正區100中山南路8號B1",
            "phone": "02-23702486",
            "lat": 25.044500350952,
            "lng": 121.51899719238,
            "service": "提款服務,悠遊卡加值,咖啡機,Life-ET(購票)服務,一卡通",
            "_id": "470",
            "id": "3625"
        },
        {
            "name": "北市正光店",
            "address": "台北市中正區100市民大道三段8號",
            "phone": "02-23913645",
            "lat": 25.045299530029,
            "lng": 121.53199768066,
            "service": "悠遊卡加值,咖啡機,相片沖洗機,Life-ET(購票)服務,一卡通",
            "_id": "448",
            "id": "3576"
        },
        {
            "name": "北市古亭店",
            "address": "台北市中正區100辛亥路一段17巷2號及19號",
            "phone": "02-89787384",
            "lat": 25.019100189209,
            "lng": 121.52799987793,
            "service": "一卡通",
            "_id": "865",
            "id": "4199"
        },
        {
            "name": "北市和平店",
            "address": "台北市中正區100延平南路210號",
            "phone": "02-23755394",
            "lat": 25.034799575806,
            "lng": 121.50700378418,
            "service": "提款服務,悠遊卡加值,咖啡機,相片沖洗機,Life-ET(購票)服務,一卡通",
            "_id": "1244",
            "id": "E182"
        },
        {
            "name": "北市國光店",
            "address": "台北市中正區100忠孝西路1段171號(台北東站)",
            "phone": "02-23832010",
            "lat": 25.047199249268,
            "lng": 121.51399993896,
            "service": "悠遊卡加值,咖啡機,Life-ET(購票)服務",
            "_id": "554",
            "id": "3769"
        },
        {
            "name": "北市正前店",
            "address": "台北市中正區100忠孝西路一段173號，台北西B站",
            "phone": "02-23831025",
            "lat": 25.047500610352,
            "lng": 121.51399993896,
            "service": "悠遊卡加值,咖啡機,Life-ET(購票)服務,一卡通",
            "_id": "572",
            "id": "3810"
        },
        {
            "name": "北市南海店",
            "address": "台北市中正區100南海路12,14號",
            "phone": "02-23933879",
            "lat": 25.032600402832,
            "lng": 121.51699829102,
            "service": "提款服務,悠遊卡加值,咖啡機,Life-ET(購票)服務,一卡通",
            "_id": "39",
            "id": "2114"
        },
        {
            "name": "北市凱撒店",
            "address": "台北市中正區100南陽街1號",
            "phone": "02-89783144",
            "lat": 25.045799255371,
            "lng": 121.51599884033,
            "service": "悠遊卡加值,咖啡機,相片沖洗機,Life-ET(購票)服務",
            "_id": "887",
            "id": "4229"
        },
        {
            "name": "北市正泉店",
            "address": "台北市中正區100泉州街31、33號、寧波西街104號一樓",
            "phone": "02-23394186",
            "lat": 25.029499053955,
            "lng": 121.51399993896,
            "service": "提款服務,悠遊卡加值,咖啡機,Life-ET(購票)服務,一卡通",
            "_id": "103",
            "id": "2457"
        },
        {
            "name": "北市正喜店",
            "address": "台北市中正區100牯嶺街117號一樓",
            "phone": "02-23642321",
            "lat": 25.025100708008,
            "lng": 121.51899719238,
            "service": "提款服務,悠遊卡加值,咖啡機,相片沖洗機,Life-ET(購票)服務,一卡通",
            "_id": "141",
            "id": "2555"
        },
        {
            "name": "北市正台店",
            "address": "台北市中正區100常德街1號",
            "phone": "02-23112155",
            "lat": 25.042699813843,
            "lng": 121.5179977417,
            "service": "悠遊卡加值,Life-ET(購票)服務,一卡通",
            "_id": "1054",
            "id": "2284"
        },
        {
            "name": "北市台大店",
            "address": "台北市中正區100常德街1號B1",
            "phone": "02-23146218",
            "lat": 25.041799545288,
            "lng": 121.51699829102,
            "service": "悠遊卡加值,咖啡機,Life-ET(購票)服務,一卡通",
            "_id": "659",
            "id": "3936"
        },
        {
            "name": "北市正忠店",
            "address": "台北市中正區100梅花里８鄰忠孝東路一段３５號一樓全部",
            "phone": "02-89781634",
            "lat": 25.044500350952,
            "lng": 121.52600097656,
            "service": "提款服務,悠遊卡加值,咖啡機,相片沖洗機,Life-ET(購票)服務,一卡通",
            "_id": "779",
            "id": "4096"
        },
        {
            "name": "北市正東店",
            "address": "台北市中正區100紹興南街4之12號",
            "phone": "02-23224009",
            "lat": 25.043300628662,
            "lng": 121.52500152588,
            "service": "悠遊卡加值,咖啡機,Life-ET(購票)服務,一卡通",
            "_id": "230",
            "id": "2895"
        },
        {
            "name": "北市司法店",
            "address": "台北市中正區100博愛路 131號B1",
            "phone": "02-23704188",
            "lat": 25.036800384521,
            "lng": 121.51100158691,
            "service": "悠遊卡加值,咖啡機,Life-ET(購票)服務,一卡通",
            "_id": "553",
            "id": "3768"
        },
        {
            "name": "北市正慶店",
            "address": "台北市中正區100衡陽路103號",
            "phone": "02-23705461",
            "lat": 25.04229927063,
            "lng": 121.50900268555,
            "service": "提款服務,悠遊卡加值,咖啡機,Life-ET(購票)服務,一卡通",
            "_id": "464",
            "id": "3611"
        },
        {
            "name": "北市正館店",
            "address": "台北市中正區100館前路45號",
            "phone": "02-23719867",
            "lat": 25.045099258423,
            "lng": 121.51499938965,
            "service": "提款服務,悠遊卡加值,咖啡機,相片沖洗機,Life-ET(購票)服務",
            "_id": "293",
            "id": "3207"
        },
        {
            "name": "北市正寶店",
            "address": "台北市中正區100寶慶路35號",
            "phone": "02-23705368",
            "lat": 25.041500091553,
            "lng": 121.51000213623,
            "service": "悠遊卡加值,咖啡機,相片沖洗機,Life-ET(購票)服務,一卡通",
            "_id": "658",
            "id": "3934"
        },
        {
            "name": "北市湖月店",
            "address": "台北市內湖區114大湖山莊街179號1樓",
            "phone": "02-89786741",
            "lat": 25.088300704956,
            "lng": 121.6009979248,
            "service": "悠遊卡加值,咖啡機,相片沖洗機,Life-ET(購票)服務,一卡通",
            "_id": "832",
            "id": "4161"
        },
        {
            "name": "北市米蘭店",
            "address": "台北市內湖區114內湖路一段120巷16號一樓全部",
            "phone": "02-26598412     ",
            "lat": 25.08270072937,
            "lng": 121.56300354004,
            "service": "提款服務,悠遊卡加值,咖啡機,相片沖洗機,Life-ET(購票)服務,一卡通",
            "_id": "606",
            "id": "3870"
        },
        {
            "name": "北市湖康店",
            "address": "台北市內湖區114文湖街21巷26、28號1樓",
            "phone": "02-89783044",
            "lat": 25.086700439453,
            "lng": 121.56099700928,
            "service": "提款服務,悠遊卡加值,咖啡機,相片沖洗機,Life-ET(購票)服務,一卡通",
            "_id": "873",
            "id": "4211"
        },
        {
            "name": "北市宏普店",
            "address": "台北市內湖區114民權東路6段117號",
            "phone": "02-27967840",
            "lat": 25.06909942627,
            "lng": 121.59200286865,
            "service": "悠遊卡加值,咖啡機,Life-ET(購票)服務,一卡通",
            "_id": "530",
            "id": "3735"
        },
        {
            "name": "北市明湖店",
            "address": "台北市內湖區114民權東路6段296巷68號",
            "phone": "02-26348091",
            "lat": 25.07029914856,
            "lng": 121.60900115967,
            "service": "提款服務,悠遊卡加值,相片沖洗機,Life-ET(購票)服務,一卡通",
            "_id": "45",
            "id": "2132"
        },
        {
            "name": "北市國醫店",
            "address": "台北市內湖區114民權東路六段123巷30、32號",
            "phone": "02-87925579",
            "lat": 25.07029914856,
            "lng": 121.59300231934,
            "service": "提款服務,悠遊卡加值,咖啡機,霜淇淋機,Life-ET(購票)服務,一卡通",
            "_id": "9",
            "id": "2020"
        },
        {
            "name": "北市國防店",
            "address": "台北市內湖區114民權東路六段１６１號",
            "phone": "02-89781053",
            "lat": 25.071699142456,
            "lng": 121.5950012207,
            "service": "悠遊卡加值,咖啡機,Life-ET(購票)服務,一卡通",
            "_id": "785",
            "id": "4103"
        },
        {
            "name": "北市權湖店",
            "address": "台北市內湖區114民權東路六段58號",
            "phone": "02-27944884",
            "lat": 25.068599700928,
            "lng": 121.58499908447,
            "service": "提款服務,悠遊卡加值,咖啡機,Life-ET(購票)服務,一卡通",
            "_id": "82",
            "id": "2397"
        },
        {
            "name": "北市民東店",
            "address": "台北市內湖區114民權東路六段69,71,75號",
            "phone": "02-27931697",
            "lat": 25.069299697876,
            "lng": 121.58799743652,
            "service": "提款服務,悠遊卡加值,咖啡機,相片沖洗機,Life-ET(購票)服務,一卡通",
            "_id": "948",
            "id": "A318"
        },
        {
            "name": "北市湖泰店",
            "address": "台北市內湖區114安泰街26.28號一樓全部",
            "phone": "02-26326581",
            "lat": 25.073400497437,
            "lng": 121.6190032959,
            "service": "提款服務,悠遊卡加值,咖啡機,相片沖洗機,Life-ET(購票)服務,一卡通",
            "_id": "673",
            "id": "3958"
        },
        {
            "name": "北市康湖店",
            "address": "台北市內湖區114安康路142號",
            "phone": "02-27926940",
            "lat": 25.062999725342,
            "lng": 121.6009979248,
            "service": "提款服務,悠遊卡加值,咖啡機,相片沖洗機,Life-ET(購票)服務",
            "_id": "1195",
            "id": "3105"
        },
        {
            "name": "北市內湖二店",
            "address": "台北市內湖區114成功路二段318之1號",
            "phone": "02-27919115",
            "lat": 25.067499160767,
            "lng": 121.58999633789,
            "service": "提款服務,悠遊卡加值,咖啡機,Life-ET(購票)服務,一卡通",
            "_id": "950",
            "id": "A708"
        },
        {
            "name": "北市成康店",
            "address": "台北市內湖區114成功路五段420巷7‧9號",
            "phone": "02-26342297",
            "lat": 25.075500488281,
            "lng": 121.60800170898,
            "service": "提款服務,悠遊卡加值,咖啡機,Life-ET(購票)服務,一卡通",
            "_id": "953",
            "id": "A952"
        },
        {
            "name": "北市亞緹店",
            "address": "台北市內湖區114江南街111號",
            "phone": "02-89783354",
            "lat": 25.076599121094,
            "lng": 121.577003479,
            "service": "提款服務,悠遊卡加值,咖啡機,相片沖洗機,Life-ET(購票)服務",
            "_id": "746",
            "id": "4053"
        },
        {
            "name": "北市麥帥店",
            "address": "台北市內湖區114行善路33及31號",
            "phone": "02-87901427",
            "lat": 25.056499481201,
            "lng": 121.57599639893,
            "service": "提款服務,悠遊卡加值,咖啡機,Life-ET(購票)服務,一卡通",
            "_id": "952",
            "id": "A896"
        },
        {
            "name": "北市蘋果店",
            "address": "台北市內湖區114行愛路141巷39號地下一樓",
            "phone": "02-87920871",
            "lat": 25.064699172974,
            "lng": 121.58100128174,
            "service": "悠遊卡加值,咖啡機,Life-ET(購票)服務,一卡通",
            "_id": "568",
            "id": "3798"
        },
        {
            "name": "北市興湖店",
            "address": "台北市內湖區114東湖路121號",
            "phone": "02-26306246",
            "lat": 25.068300247192,
            "lng": 121.61599731445,
            "service": "提款服務,悠遊卡加值,咖啡機,Life-ET(購票)服務,一卡通",
            "_id": "1036",
            "id": "2253"
        },
        {
            "name": "北市金湖店",
            "address": "台北市內湖區114金湖路403號",
            "phone": "02-26319106",
            "lat": 25.073299407959,
            "lng": 121.60399627686,
            "service": "提款服務,悠遊卡加值,咖啡機,相片沖洗機,Life-ET(購票)服務",
            "_id": "5",
            "id": "2006"
        },
        {
            "name": "北市金碧店",
            "address": "台北市內湖區114金龍路64、66號壹樓全部",
            "phone": "02-89782940",
            "lat": 25.084800720215,
            "lng": 121.59300231934,
            "service": "悠遊卡加值,咖啡機,Life-ET(購票)服務",
            "_id": "780",
            "id": "4097"
        },
        {
            "name": "北市鑫湖店",
            "address": "台北市內湖區114基湖路35巷11號一樓全部",
            "phone": "02-87518529",
            "lat": 25.079900741577,
            "lng": 121.56500244141,
            "service": "提款服務,悠遊卡加值,咖啡機,相片沖洗機,霜淇淋機,Life-ET(購票)服務,一卡通",
            "_id": "629",
            "id": "3898"
        },
        {
            "name": "北市康寧店",
            "address": "台北市內湖區114康寧路3段155號",
            "phone": "02-26337880",
            "lat": 25.070499420166,
            "lng": 121.61100006104,
            "service": "提款服務,悠遊卡加值,咖啡機,Life-ET(購票)服務,一卡通",
            "_id": "3",
            "id": "2003"
        },
        {
            "name": "北市康樂二店",
            "address": "台北市內湖區114康樂街92號",
            "phone": "02-26311791",
            "lat": 25.070499420166,
            "lng": 121.6190032959,
            "service": "提款服務,悠遊卡加值,咖啡機,相片沖洗機,Life-ET(購票)服務,一卡通",
            "_id": "947",
            "id": "A311"
        },
        {
            "name": "北市湖玉店",
            "address": "台北市內湖區114陽光街298號一樓部份",
            "phone": "02-26586383",
            "lat": 25.073400497437,
            "lng": 121.57399749756,
            "service": "悠遊卡加值,咖啡機,相片沖洗機,Life-ET(購票)服務,一卡通",
            "_id": "587",
            "id": "3836"
        },
        {
            "name": "北市陽光店",
            "address": "台北市內湖區114陽光街347號",
            "phone": "02-26277131",
            "lat": 25.072999954224,
            "lng": 121.57800292969,
            "service": "提款服務,悠遊卡加值,咖啡機,相片沖洗機,Life-ET(購票)服務,一卡通",
            "_id": "1017",
            "id": "2190"
        },
        {
            "name": "北市新明店",
            "address": "台北市內湖區114新明路241、241-1號",
            "phone": "02-89786745",
            "lat": 25.057899475098,
            "lng": 121.58699798584,
            "service": "悠遊卡加值,咖啡機,相片沖洗機,Life-ET(購票)服務,一卡通",
            "_id": "829",
            "id": "4158"
        },
        {
            "name": "北市湖宗店",
            "address": "台北市內湖區114新湖二路160.162號一樓全部",
            "phone": "02-27963773",
            "lat": 25.062999725342,
            "lng": 121.58000183105,
            "service": "提款服務,悠遊卡加值,咖啡機,相片沖洗機,Life-ET(購票)服務,一卡通",
            "_id": "622",
            "id": "3889"
        },
        {
            "name": "北市湖元店",
            "address": "台北市內湖區114新湖三路36號1樓",
            "phone": "02-89787470",
            "lat": 25.062999725342,
            "lng": 121.57499694824,
            "service": "悠遊卡加值,咖啡機,Life-ET(購票)服務,一卡通",
            "_id": "831",
            "id": "4160"
        },
        {
            "name": "北市湖光店",
            "address": "台北市內湖區114瑞光路188巷60號",
            "phone": "02-27999698",
            "lat": 25.073499679565,
            "lng": 121.57599639893,
            "service": "提款服務,悠遊卡加值,咖啡機,相片沖洗機,Life-ET(購票)服務,一卡通",
            "_id": "1032",
            "id": "2228"
        },
        {
            "name": "北市湖鑽店",
            "address": "台北市內湖區114瑞光路５０２號１樓之１",
            "phone": "02-26599739",
            "lat": 25.078899383545,
            "lng": 121.56800079346,
            "service": "提款服務,悠遊卡加值,咖啡機,相片沖洗機,Life-ET(購票)服務",
            "_id": "541",
            "id": "3750"
        },
        {
            "name": "北市湖森店",
            "address": "台北市內湖區114瑞光路66巷33號",
            "phone": "02-87919161",
            "lat": 25.069700241089,
            "lng": 121.58100128174,
            "service": "提款服務,悠遊卡加值,咖啡機,相片沖洗機,Life-ET(購票)服務",
            "_id": "1033",
            "id": "2233"
        },
        {
            "name": "北市湖潤店",
            "address": "台北市內湖區114舊宗路一段188號",
            "phone": "02-27933092",
            "lat": 25.062599182129,
            "lng": 121.57499694824,
            "service": "悠遊卡加值,Life-ET(購票)服務,一卡通",
            "_id": "292",
            "id": "3206"
        },
        {
            "name": "北市世新店",
            "address": "台北市文山區116木柵路一段8號",
            "phone": "02-22365449",
            "lat": 24.986600875854,
            "lng": 121.54599761963,
            "service": "提款服務,悠遊卡加值,咖啡機,Life-ET(購票)服務",
            "_id": "978",
            "id": "C348"
        },
        {
            "name": "北市木新三店",
            "address": "台北市文山區116木新路二段163號",
            "phone": "02-29377084",
            "lat": 24.983800888062,
            "lng": 121.56900024414,
            "service": "提款服務,悠遊卡加值,咖啡機,Life-ET(購票)服務",
            "_id": "976",
            "id": "C229"
        },
        {
            "name": "北市木新二店",
            "address": "台北市文山區116木新路三段232巷6弄18號",
            "phone": "02-29376642",
            "lat": 24.981899261475,
            "lng": 121.55999755859,
            "service": "提款服務,悠遊卡加值,咖啡機,Life-ET(購票)服務,一卡通",
            "_id": "972",
            "id": "C055"
        },
        {
            "name": "北市師鑽店",
            "address": "台北市文山區116汀州路四段88號",
            "phone": "02-29326952",
            "lat": 25.007499694824,
            "lng": 121.53500366211,
            "service": "提款服務,悠遊卡加值,咖啡機,Life-ET(購票)服務,一卡通",
            "_id": "300",
            "id": "3223"
        },
        {
            "name": "北市文辛店",
            "address": "台北市文山區116辛亥路四段218號及220號",
            "phone": "02-29306566",
            "lat": 25.00239944458,
            "lng": 121.55500030518,
            "service": "提款服務,悠遊卡加值,咖啡機,Life-ET(購票)服務,一卡通",
            "_id": "489",
            "id": "3660"
        },
        {
            "name": "北市指南店",
            "address": "台北市文山區116指南路二段32號",
            "phone": "02-86615448",
            "lat": 24.987699508667,
            "lng": 121.57499694824,
            "service": "提款服務,悠遊卡加值,咖啡機,Life-ET(購票)服務,一卡通",
            "_id": "64",
            "id": "2175"
        },
        {
            "name": "北市政商店",
            "address": "台北市文山區116指南路二段64號(商學院)",
            "phone": "02-89783143",
            "lat": 24.986999511719,
            "lng": 121.57599639893,
            "service": "",
            "_id": "883",
            "id": "4224"
        },
        {
            "name": "北市政學店",
            "address": "台北市文山區116指南路二段64號",
            "phone": "02-89782091",
            "lat": 24.979700088501,
            "lng": 121.58200073242,
            "service": "提款服務,悠遊卡加值,咖啡機,相片沖洗機,Life-ET(購票)服務,一卡通",
            "_id": "681",
            "id": "3966"
        },
        {
            "name": "北市藝文店",
            "address": "台北市文山區116指南路二段64號四樓",
            "phone": "02-89781640",
            "lat": 24.981800079346,
            "lng": 121.57900238037,
            "service": "悠遊卡加值,Life-ET(購票)服務,一卡通",
            "_id": "784",
            "id": "4102"
        },
        {
            "name": "北市貓空店",
            "address": "台北市文山區116指南路三段38巷35號",
            "phone": "02-22346497",
            "lat": 24.97080039978,
            "lng": 121.60500335693,
            "service": "悠遊卡加值,咖啡機,相片沖洗機,霜淇淋機,Life-ET(購票)服務",
            "_id": "667",
            "id": "3951"
        },
        {
            "name": "北市文福店",
            "address": "台北市文山區116景福街230巷2號",
            "phone": "02-86639013",
            "lat": 24.993700027466,
            "lng": 121.53900146484,
            "service": "提款服務,悠遊卡加值,咖啡機,Life-ET(購票)服務,一卡通",
            "_id": "79",
            "id": "2385"
        },
        {
            "name": "北市浣熊二店",
            "address": "台北市文山區116新光路二段３０號",
            "phone": "",
            "lat": 24.998346328735,
            "lng": 121.58103942871,
            "service": "",
            "_id": "1176",
            "id": "3064"
        },
        {
            "name": "北市浣熊店",
            "address": "台北市文山區116新光路二段３０號",
            "phone": "02-29368675",
            "lat": 24.995000839233,
            "lng": 121.58399963379,
            "service": "悠遊卡加值,一卡通",
            "_id": "547",
            "id": "3760"
        },
        {
            "name": "北市試院店",
            "address": "台北市文山區116試院路104號",
            "phone": "02-22364780",
            "lat": 24.990100860596,
            "lng": 121.547996521,
            "service": "提款服務,悠遊卡加值,咖啡機,Life-ET(購票)服務,一卡通",
            "_id": "46",
            "id": "2133"
        },
        {
            "name": "北市興隆店",
            "address": "台北市文山區116興隆路2段203巷16號",
            "phone": "02-89315594",
            "lat": 25.002099990845,
            "lng": 121.54900360107,
            "service": "提款服務,悠遊卡加值,咖啡機,Life-ET(購票)服務,一卡通",
            "_id": "980",
            "id": "C615"
        },
        {
            "name": "北市萬興店",
            "address": "台北市文山區116興隆路3段58號",
            "phone": "02-89317731",
            "lat": 25,
            "lng": 121.55599975586,
            "service": "提款服務,悠遊卡加值,咖啡機,相片沖洗機,Life-ET(購票)服務",
            "_id": "981",
            "id": "C647"
        },
        {
            "name": "北市文武店",
            "address": "台北市文山區116羅斯福路五段203號",
            "phone": "02-89315646",
            "lat": 25.00239944458,
            "lng": 121.53900146484,
            "service": "提款服務,悠遊卡加值,咖啡機,Life-ET(購票)服務,一卡通",
            "_id": "91",
            "id": "2419"
        },
        {
            "name": "北市北天店",
            "address": "台北市北投區112中央北路4段8號",
            "phone": "02-28923340 ",
            "lat": 25.13570022583,
            "lng": 121.47899627686,
            "service": "提款服務,悠遊卡加值,咖啡機,相片沖洗機,Life-ET(購票)服務,一卡通",
            "_id": "128",
            "id": "2528"
        },
        {
            "name": "北市政戰店",
            "address": "台北市北投區112中央北路二段70號",
            "phone": "02-28942939",
            "lat": 25.140600204468,
            "lng": 121.49299621582,
            "service": "悠遊卡加值,咖啡機,Life-ET(購票)服務,一卡通",
            "_id": "474",
            "id": "3630"
        },
        {
            "name": "北市北崗店",
            "address": "台北市北投區112中央北路三段４４、４６號",
            "phone": "02-28953924",
            "lat": 25.138299942017,
            "lng": 121.48500061035,
            "service": "提款服務,悠遊卡加值,咖啡機,Life-ET(購票)服務",
            "_id": "200",
            "id": "2673"
        },
        {
            "name": "北市奇岩店",
            "address": "台北市北投區112中央南路二段5號及7號",
            "phone": "02-28923112",
            "lat": 25.126100540161,
            "lng": 121.50099945068,
            "service": "提款服務,悠遊卡加值,咖啡機,相片沖洗機,Life-ET(購票)服務,一卡通",
            "_id": "514",
            "id": "3707"
        },
        {
            "name": "北市北和店",
            "address": "台北市北投區112中和街402號",
            "phone": "02-28943393",
            "lat": 25.14349937439,
            "lng": 121.49800109863,
            "service": "悠遊卡加值,咖啡機,Life-ET(購票)服務,一卡通",
            "_id": "97",
            "id": "2429"
        },
        {
            "name": "北市大業店",
            "address": "台北市北投區112中和街41號",
            "phone": "02-28930682",
            "lat": 25.138000488281,
            "lng": 121.50299835205,
            "service": "提款服務,悠遊卡加值,咖啡機,Life-ET(購票)服務,一卡通",
            "_id": "944",
            "id": "A198"
        },
        {
            "name": "北市十信店",
            "address": "台北市北投區112北投路2段55號",
            "phone": "02-28932370",
            "lat": 25.133899688721,
            "lng": 121.49600219727,
            "service": "悠遊卡加值,Life-ET(購票)服務,一卡通",
            "_id": "582",
            "id": "3830"
        },
        {
            "name": "北市北華二店",
            "address": "台北市北投區112石牌路二段201號",
            "phone": "",
            "lat": 25.120183944702,
            "lng": 121.52015686035,
            "service": "",
            "_id": "1143",
            "id": "2824"
        },
        {
            "name": "北市北華店",
            "address": "台北市北投區112石牌路二段201號",
            "phone": "02-28751246",
            "lat": 25.119100570679,
            "lng": 121.51899719238,
            "service": "悠遊卡加值,咖啡機,Life-ET(購票)服務,一卡通",
            "_id": "1145",
            "id": "2827"
        },
        {
            "name": "北市北功店",
            "address": "台北市北投區112立德路60號及立功街135號",
            "phone": "02-28585242",
            "lat": 25.125400543213,
            "lng": 121.47200012207,
            "service": "提款服務,悠遊卡加值,咖啡機,Life-ET(購票)服務,一卡通",
            "_id": "1199",
            "id": "3118"
        },
        {
            "name": "北市紗帽店",
            "address": "台北市北投區112行義路142-1及142-3號B1",
            "phone": "02-89782704",
            "lat": 25.129999160767,
            "lng": 121.52799987793,
            "service": "悠遊卡加值,咖啡機,Life-ET(購票)服務",
            "_id": "799",
            "id": "4124"
        },
        {
            "name": "北市關渡店",
            "address": "台北市北投區112知行路314號、316巷2號",
            "phone": "02-28586942",
            "lat": 25.122499465942,
            "lng": 121.46700286865,
            "service": "提款服務,悠遊卡加值,咖啡機,Life-ET(購票)服務,一卡通",
            "_id": "1161",
            "id": "3034"
        },
        {
            "name": "北市惇敘店",
            "address": "台北市北投區112泉源路221號",
            "phone": "02-28924482",
            "lat": 25.145299911499,
            "lng": 121.52700042725,
            "service": "悠遊卡加值,Life-ET(購票)服務,一卡通",
            "_id": "437",
            "id": "3553"
        },
        {
            "name": "北市北清店",
            "address": "台北市北投區112清江路53及55號",
            "phone": "02-89783776",
            "lat": 25.130699157715,
            "lng": 121.50199890137,
            "service": "提款服務,悠遊卡加值,咖啡機,相片沖洗機,Life-ET(購票)服務,一卡通",
            "_id": "684",
            "id": "3969"
        },
        {
            "name": "北市立農店",
            "address": "台北市北投區112義理街96號及立農街2段292號",
            "phone": "02-89781336",
            "lat": 25.118499755859,
            "lng": 121.51599884033,
            "service": "提款服務,悠遊卡加值,咖啡機,Life-ET(購票)服務,一卡通",
            "_id": "508",
            "id": "3695"
        },
        {
            "name": "北市北裕店",
            "address": "台北市北投區112裕民六路120號",
            "phone": "02-28217059",
            "lat": 25.114700317383,
            "lng": 121.5179977417,
            "service": "提款服務,悠遊卡加值,咖啡機,Life-ET(購票)服務,一卡通",
            "_id": "463",
            "id": "3607"
        },
        {
            "name": "北市北武店",
            "address": "台北市北投區112學園路2號",
            "phone": "02-28956952",
            "lat": 25.134300231934,
            "lng": 121.46900177002,
            "service": "悠遊卡加值,咖啡機,相片沖洗機,Life-ET(購票)服務,一卡通",
            "_id": "310",
            "id": "3257"
        },
        {
            "name": "北市懷德店",
            "address": "台北市北投區112懷德街5號",
            "phone": "02-28235999",
            "lat": 25.111299514771,
            "lng": 121.51899719238,
            "service": "提款服務,悠遊卡加值,咖啡機,相片沖洗機,Life-ET(購票)服務,一卡通",
            "_id": "943",
            "id": "A186"
        },
        {
            "name": "北市松育店",
            "address": "台北市松山區105八德路3段119號",
            "phone": "02-25707498",
            "lat": 25.048400878906,
            "lng": 121.55400085449,
            "service": "提款服務,悠遊卡加值,咖啡機,相片沖洗機,Life-ET(購票)服務,一卡通",
            "_id": "1135",
            "id": "2797"
        },
        {
            "name": "北市敦化店",
            "address": "台北市松山區105八德路三段12巷51弄2號",
            "phone": "02-25792957",
            "lat": 25.046100616455,
            "lng": 121.55100250244,
            "service": "提款服務,悠遊卡加值,咖啡機,相片沖洗機,Life-ET(購票)服務,一卡通",
            "_id": "961",
            "id": "B156"
        },
        {
            "name": "北市民權二店",
            "address": "台北市松山區105民權東路五段32號",
            "phone": "02-27609238",
            "lat": 25.062799453735,
            "lng": 121.56400299072,
            "service": "提款服務,悠遊卡加值,咖啡機,Life-ET(購票)服務,一卡通",
            "_id": "962",
            "id": "B157"
        },
        {
            "name": "北市松柏店",
            "address": "台北市松山區105光復北路102號",
            "phone": "02-25785314",
            "lat": 25.05060005188,
            "lng": 121.55799865723,
            "service": "提款服務,悠遊卡加值,咖啡機,相片沖洗機,Life-ET(購票)服務,一卡通",
            "_id": "427",
            "id": "3536"
        },
        {
            "name": "北市松清店",
            "address": "台北市松山區105南京東路5段250巷3-1號",
            "phone": "02-27494696",
            "lat": 25.05060005188,
            "lng": 121.56600189209,
            "service": "提款服務,悠遊卡加值,咖啡機,相片沖洗機,Life-ET(購票)服務,一卡通",
            "_id": "366",
            "id": "3395"
        },
        {
            "name": "北市寶德店",
            "address": "台北市松山區105南京東路5段61號及63號",
            "phone": "02-37655520",
            "lat": 25.05179977417,
            "lng": 121.55899810791,
            "service": "提款服務,悠遊卡加值,咖啡機,相片沖洗機,Life-ET(購票)服務,一卡通",
            "_id": "487",
            "id": "3656"
        },
        {
            "name": "北市松華店",
            "address": "台北市松山區105南京東路五段34號",
            "phone": "02-27656346",
            "lat": 25.051399230957,
            "lng": 121.55899810791,
            "service": "提款服務,悠遊卡加值,咖啡機,Life-ET(購票)服務,一卡通",
            "_id": "101",
            "id": "2451"
        },
        {
            "name": "北市松康店",
            "address": "台北市松山區105健康路325巷12弄2號",
            "phone": "02-87871371",
            "lat": 25.055400848389,
            "lng": 121.56700134277,
            "service": "提款服務,悠遊卡加值,咖啡機,相片沖洗機,Life-ET(購票)服務,一卡通",
            "_id": "116",
            "id": "2506"
        },
        {
            "name": "北市新樸實店",
            "address": "台北市松山區105寧安街12號(育達高職樸實樓一樓107教室)",
            "phone": "02-89783164",
            "lat": 25.049999237061,
            "lng": 121.55400085449,
            "service": "悠遊卡加值,Life-ET(購票)服務,一卡通",
            "_id": "892",
            "id": "4234"
        },
        {
            "name": "北市家聲店",
            "address": "台北市松山區105寧安街12號",
            "phone": "02-25794318",
            "lat": 25.050300598145,
            "lng": 121.55400085449,
            "service": "悠遊卡加值,Life-ET(購票)服務,一卡通",
            "_id": "528",
            "id": "3731"
        },
        {
            "name": "北市松遠店",
            "address": "台北市松山區105撫遠街369巷36號",
            "phone": "02-27467477",
            "lat": 25.063800811768,
            "lng": 121.56600189209,
            "service": "提款服務,悠遊卡加值,咖啡機,相片沖洗機,Life-ET(購票)服務,一卡通",
            "_id": "208",
            "id": "2690"
        },
        {
            "name": "北市饒河店",
            "address": "台北市松山區105饒河街35號",
            "phone": "02-87870373",
            "lat": 25.050199508667,
            "lng": 121.57299804688,
            "service": "提款服務,悠遊卡加值,咖啡機,相片沖洗機,Life-ET(購票)服務,一卡通",
            "_id": "60",
            "id": "2169"
        },
        {
            "name": "北市信北店",
            "address": "台北市信義區110中坡北路17.19號",
            "phone": "02-27630903",
            "lat": 25.044799804688,
            "lng": 121.58100128174,
            "service": "提款服務,悠遊卡加值,咖啡機,相片沖洗機,霜淇淋機,Life-ET(購票)服務,一卡通",
            "_id": "260",
            "id": "2982"
        },
        {
            "name": "北市市政店",
            "address": "台北市信義區110市府路1號(市政大樓地下二樓)",
            "phone": "02-89783410",
            "lat": 25.037700653076,
            "lng": 121.56400299072,
            "service": "悠遊卡加值,咖啡機,Life-ET(購票)服務,一卡通",
            "_id": "752",
            "id": "4061"
        },
        {
            "name": "北市信吉店",
            "address": "台北市信義區110永吉路125號一樓",
            "phone": "02-27618097",
            "lat": 25.045900344849,
            "lng": 121.56999969482,
            "service": "提款服務,悠遊卡加值,咖啡機,相片沖洗機,Life-ET(購票)服務,一卡通",
            "_id": "1102",
            "id": "2729"
        },
        {
            "name": "北市松永店",
            "address": "台北市信義區110永吉路280號",
            "phone": "02-27484607",
            "lat": 25.045400619507,
            "lng": 121.57399749756,
            "service": "提款服務,悠遊卡加值,咖啡機,Life-ET(購票)服務,一卡通",
            "_id": "966",
            "id": "B643"
        },
        {
            "name": "北市信東二店",
            "address": "台北市信義區110忠孝東路5段63號",
            "phone": "",
            "lat": 25.041475296021,
            "lng": 121.56656646729,
            "service": "",
            "_id": "1113",
            "id": "2754"
        },
        {
            "name": "北市信東店",
            "address": "台北市信義區110忠孝東路5段63號",
            "phone": "02-27491906",
            "lat": 25.041299819946,
            "lng": 121.56700134277,
            "service": "提款服務,悠遊卡加值,咖啡機,Life-ET(購票)服務,一卡通",
            "_id": "1117",
            "id": "2758"
        },
        {
            "name": "北市林口店",
            "address": "台北市信義區110林口街36號",
            "phone": "02-27263600",
            "lat": 25.037799835205,
            "lng": 121.58000183105,
            "service": "提款服務,悠遊卡加值,Life-ET(購票)服務,一卡通",
            "_id": "959",
            "id": "B056"
        },
        {
            "name": "北市松站店",
            "address": "台北市信義區110松山路11號U1層商業空間",
            "phone": "02-27479763",
            "lat": 25.049299240112,
            "lng": 121.57900238037,
            "service": "悠遊卡加值,咖啡機,Life-ET(購票)服務,一卡通",
            "_id": "498",
            "id": "3681"
        },
        {
            "name": "北市信誠店",
            "address": "台北市信義區110松山路537號及541巷1號",
            "phone": "02-27598941",
            "lat": 25.037799835205,
            "lng": 121.57800292969,
            "service": "提款服務,悠遊卡加值,咖啡機,Life-ET(購票)服務",
            "_id": "328",
            "id": "3301"
        },
        {
            "name": "北市國貿三店",
            "address": "台北市信義區110松壽路6號",
            "phone": "",
            "lat": 25.035486221313,
            "lng": 121.56446838379,
            "service": "",
            "_id": "507",
            "id": "3694"
        },
        {
            "name": "北市國貿二店",
            "address": "台北市信義區110松壽路6號",
            "phone": "",
            "lat": 25.035486221313,
            "lng": 121.56446838379,
            "service": "",
            "_id": "512",
            "id": "3704"
        },
        {
            "name": "北市國貿店",
            "address": "台北市信義區110松壽路6號",
            "phone": "02-27228472",
            "lat": 25.035400390625,
            "lng": 121.56400299072,
            "service": "悠遊卡加值,咖啡機,Life-ET(購票)服務,一卡通",
            "_id": "550",
            "id": "3763"
        },
        {
            "name": "北市信德店",
            "address": "台北市信義區110虎林街164巷60弄2號一樓部份",
            "phone": "02-87895535",
            "lat": 25.038000106812,
            "lng": 121.57499694824,
            "service": "提款服務,悠遊卡加值,咖啡機,Life-ET(購票)服務,一卡通",
            "_id": "181",
            "id": "2638"
        },
        {
            "name": "北市101店",
            "address": "台北市信義區110信義路5段20號",
            "phone": "02-89785935",
            "lat": 25.03330039978,
            "lng": 121.56300354004,
            "service": "悠遊卡加值,Life-ET(購票)服務,一卡通",
            "_id": "837",
            "id": "4168"
        },
        {
            "name": "北市信彩二店",
            "address": "台北市信義區110基隆路一段350之41,43號一樓",
            "phone": "",
            "lat": 25.036630630493,
            "lng": 121.56126403809,
            "service": "",
            "_id": "1134",
            "id": "2794"
        },
        {
            "name": "北市信彩三店",
            "address": "台北市信義區110基隆路一段350之41,43號一樓",
            "phone": "",
            "lat": 25.036630630493,
            "lng": 121.56126403809,
            "service": "",
            "_id": "1137",
            "id": "2804"
        },
        {
            "name": "北市信彩店",
            "address": "台北市信義區110基隆路一段350之41,43號一樓",
            "phone": "02-87884749",
            "lat": 25.035999298096,
            "lng": 121.56099700928,
            "service": "提款服務,悠遊卡加值,咖啡機,Life-ET(購票)服務,一卡通",
            "_id": "1127",
            "id": "2782"
        },
        {
            "name": "北市信長店",
            "address": "台北市信義區110莊敬路290號一樓全部",
            "phone": "02-87895129",
            "lat": 25.028499603271,
            "lng": 121.56300354004,
            "service": "提款服務,悠遊卡加值,咖啡機,相片沖洗機,Life-ET(購票)服務,一卡通",
            "_id": "566",
            "id": "3795"
        },
        {
            "name": "北市福德店",
            "address": "台北市信義區110福德街266號",
            "phone": "02-27590440",
            "lat": 25.038900375366,
            "lng": 121.58599853516,
            "service": "提款服務,悠遊卡加值,咖啡機,Life-ET(購票)服務,一卡通",
            "_id": "955",
            "id": "B040"
        },
        {
            "name": "北市港北店",
            "address": "台北市南港區115中坡北路50巷1號",
            "phone": "02-26518849",
            "lat": 25.046499252319,
            "lng": 121.58100128174,
            "service": "提款服務,悠遊卡加值,咖啡機,相片沖洗機,Life-ET(購票)服務,一卡通",
            "_id": "150",
            "id": "2569"
        },
        {
            "name": "北市港成店",
            "address": "台北市南港區115玉成街27號",
            "phone": "02-27856397",
            "lat": 25.050399780273,
            "lng": 121.58200073242,
            "service": "提款服務,悠遊卡加值,咖啡機,Life-ET(購票)服務,一卡通",
            "_id": "965",
            "id": "B378"
        },
        {
            "name": "北市港運店",
            "address": "台北市南港區115玉成街52巷2弄3號1樓全部、5號1樓",
            "phone": "02-89783865",
            "lat": 25.047700881958,
            "lng": 121.58100128174,
            "service": "提款服務,悠遊卡加值,咖啡機,相片沖洗機,Life-ET(購票)服務,一卡通",
            "_id": "703",
            "id": "3995"
        },
        {
            "name": "北市港醫店",
            "address": "台北市南港區115同德路87號",
            "phone": "02-27829523",
            "lat": 25.04640007019,
            "lng": 121.58599853516,
            "service": "悠遊卡加值,Life-ET(購票)服務",
            "_id": "345",
            "id": "3340"
        },
        {
            "name": "北市南港二店",
            "address": "台北市南港區115忠孝東路七段639號",
            "phone": "02-27838896",
            "lat": 25.053300857544,
            "lng": 121.61599731445,
            "service": "提款服務,悠遊卡加值,咖啡機,Life-ET(購票)服務,一卡通",
            "_id": "954",
            "id": "B011"
        },
        {
            "name": "北市南港三店",
            "address": "台北市南港區115忠孝東路六段252號",
            "phone": "02-27888329",
            "lat": 25.048900604248,
            "lng": 121.58799743652,
            "service": "提款服務,悠遊卡加值,咖啡機,相片沖洗機,Life-ET(購票)服務,一卡通",
            "_id": "956",
            "id": "B042"
        },
        {
            "name": "北市昆陽店",
            "address": "台北市南港區115昆陽街99號",
            "phone": "02-26537383",
            "lat": 25.051300048828,
            "lng": 121.59400177002,
            "service": "提款服務,悠遊卡加值,咖啡機,相片沖洗機,Life-ET(購票)服務,一卡通",
            "_id": "964",
            "id": "B344"
        },
        {
            "name": "北市港鑫店",
            "address": "台北市南港區115南港路一段313號地下二樓商場",
            "phone": "02-27883443",
            "lat": 25.053699493408,
            "lng": 121.6070022583,
            "service": "咖啡機,Life-ET(購票)服務,一卡通",
            "_id": "664",
            "id": "3947"
        },
        {
            "name": "北市港漢店",
            "address": "台北市南港區115南港路二段2,4號",
            "phone": "02-26537916",
            "lat": 25.054399490356,
            "lng": 121.60600280762,
            "service": "提款服務,悠遊卡加值,咖啡機,Life-ET(購票)服務,一卡通",
            "_id": "162",
            "id": "2597"
        },
        {
            "name": "北市港玉店",
            "address": "台北市南港區115南港路三段8、10號一樓全部",
            "phone": "02-89785453",
            "lat": 25.054500579834,
            "lng": 121.59300231934,
            "service": "提款服務,悠遊卡加值,咖啡機,相片沖洗機,Life-ET(購票)服務,一卡通",
            "_id": "775",
            "id": "4092"
        },
        {
            "name": "北市港宏店",
            "address": "台北市南港區115研究院路二段110號一樓",
            "phone": "02-26519272",
            "lat": 25.04280090332,
            "lng": 121.61599731445,
            "service": "提款服務,悠遊卡加值,咖啡機,相片沖洗機,Life-ET(購票)服務,一卡通",
            "_id": "539",
            "id": "3748"
        },
        {
            "name": "北市港捷店",
            "address": "台北市南港區115經貿二路1號",
            "phone": "02-27839580",
            "lat": 25.055700302124,
            "lng": 121.61699676514,
            "service": "悠遊卡加值,咖啡機,Life-ET(購票)服務,一卡通",
            "_id": "439",
            "id": "3557"
        },
        {
            "name": "北市經貿店",
            "address": "台北市南港區115經貿二路235巷36號1樓",
            "phone": "02-89783924",
            "lat": 25.06130027771,
            "lng": 121.61499786377,
            "service": "悠遊卡加值,咖啡機,相片沖洗機,Life-ET(購票)服務,一卡通",
            "_id": "915",
            "id": "4265"
        },
        {
            "name": "北市港南店",
            "address": "台北市南港區115舊莊街一段212巷2號一樓全部",
            "phone": "02-26518142",
            "lat": 25.03809928894,
            "lng": 121.62200164795,
            "service": "提款服務,悠遊卡加值,咖啡機,相片沖洗機,Life-ET(購票)服務,一卡通",
            "_id": "473",
            "id": "3629"
        },
        {
            "name": "北市萬和店",
            "address": "台北市萬華區108民和街9號",
            "phone": "02-23047803",
            "lat": 25.026300430298,
            "lng": 121.5,
            "service": "提款服務,悠遊卡加值,咖啡機,相片沖洗機,Life-ET(購票)服務,一卡通",
            "_id": "102",
            "id": "2452"
        },
        {
            "name": "北市華園店",
            "address": "台北市萬華區108西園路一段168、170號",
            "phone": "02-89781042",
            "lat": 25.03689956665,
            "lng": 121.49900054932,
            "service": "提款服務,悠遊卡加值,咖啡機,相片沖洗機,Life-ET(購票)服務,一卡通",
            "_id": "904",
            "id": "4249"
        },
        {
            "name": "北市萬鑫店",
            "address": "台北市萬華區108西園路二段134、136、138號",
            "phone": "02-23083401",
            "lat": 25.030500411987,
            "lng": 121.49600219727,
            "service": "提款服務,悠遊卡加值,咖啡機,相片沖洗機,Life-ET(購票)服務,一卡通",
            "_id": "636",
            "id": "3908"
        },
        {
            "name": "北市獅子林店",
            "address": "台北市萬華區108西寧南路36之69,71.72.73.74號",
            "phone": "02-23120222",
            "lat": 25.045600891113,
            "lng": 121.50700378418,
            "service": "提款服務,悠遊卡加值,咖啡機,Life-ET(購票)服務,一卡通",
            "_id": "1245",
            "id": "E968"
        },
        {
            "name": "北市萬寧店",
            "address": "台北市萬華區108長沙街二段50號",
            "phone": "02-89783407",
            "lat": 25.040500640869,
            "lng": 121.5059967041,
            "service": "提款服務,悠遊卡加值,咖啡機,Life-ET(購票)服務,一卡通",
            "_id": "407",
            "id": "3497"
        },
        {
            "name": "北市梧州店",
            "address": "台北市萬華區108梧州街29號",
            "phone": "02-23367542",
            "lat": 25.038000106812,
            "lng": 121.49800109863,
            "service": "提款服務,悠遊卡加值,咖啡機,Life-ET(購票)服務,一卡通",
            "_id": "1243",
            "id": "E119"
        },
        {
            "name": "北市鑫梧店",
            "address": "台北市萬華區108梧州街55號",
            "phone": "02-23369605",
            "lat": 25.035999298096,
            "lng": 121.49800109863,
            "service": "提款服務,悠遊卡加值,咖啡機,Life-ET(購票)服務,一卡通",
            "_id": "548",
            "id": "3761"
        },
        {
            "name": "北市班客店",
            "address": "台北市萬華區108廣州街247號",
            "phone": "02-89787245",
            "lat": 25.036800384521,
            "lng": 121.49700164795,
            "service": "悠遊卡加值,咖啡機,相片沖洗機,Life-ET(購票)服務,一卡通",
            "_id": "830",
            "id": "4159"
        },
        {
            "name": "北市華德店",
            "address": "台北市萬華區108德昌街241、243、245號",
            "phone": "02-89782941",
            "lat": 25.023199081421,
            "lng": 121.49299621582,
            "service": "提款服務,悠遊卡加值,咖啡機,Life-ET(購票)服務",
            "_id": "767",
            "id": "4082"
        },
        {
            "name": "北市艋舺店",
            "address": "台北市萬華區108雙園街69號",
            "phone": "02-23063482",
            "lat": 25.030199050903,
            "lng": 121.4940032959,
            "service": "提款服務,悠遊卡加值,相片沖洗機,Life-ET(購票)服務,一卡通",
            "_id": "458",
            "id": "3597"
        }
    ]
}