{
    "city_name": "嘉義市",
    "stores": [
        {
            "name": "嘉義國運店",
            "address": "嘉義市西區672中興路1號",
            "phone": "05-2314486",
            "lat": 23.480199813843,
            "lng": 120.44000244141,
            "service": "悠遊卡加值,咖啡機,Life-ET(購票)服務,一卡通",
            "_id": "594",
            "id": "3852"
        },
        {
            "name": "嘉義站前店",
            "address": "嘉義市西區672仁愛路584號",
            "phone": "05-2280203",
            "lat": 23.478799819946,
            "lng": 120.44200134277,
            "service": "提款服務,悠遊卡加值,Life-ET(購票)服務,一卡通",
            "_id": "1328",
            "id": "P382"
        },
        {
            "name": "嘉義嘉文店",
            "address": "嘉義市西區672文化路87號",
            "phone": "05-2168523",
            "lat": 23.477800369263,
            "lng": 120.44999694824,
            "service": "悠遊卡加值,咖啡機,Life-ET(購票)服務,一卡通",
            "_id": "1025",
            "id": "2210"
        },
        {
            "name": "嘉義義昌店",
            "address": "嘉義市西區672民族路652號",
            "phone": "05-2253735",
            "lat": 23.475700378418,
            "lng": 120.44499969482,
            "service": "提款服務,悠遊卡加值,咖啡機,Life-ET(購票)服務,一卡通",
            "_id": "1327",
            "id": "P370"
        },
        {
            "name": "嘉義嘉業店",
            "address": "嘉義市西區672興業西路139號",
            "phone": "05-2838513",
            "lat": 23.468099594116,
            "lng": 120.44300079346,
            "service": "提款服務,悠遊卡加值,咖啡機,相片沖洗機,Life-ET(購票)服務,一卡通",
            "_id": "1048",
            "id": "2276"
        },
        {
            "name": "嘉市吳鳳店",
            "address": "嘉義市東區671吳鳳南路647號",
            "phone": "05-2308340",
            "lat": 23.455200195312,
            "lng": 120.45999908447,
            "service": "提款服務,悠遊卡加值,Life-ET(購票)服務,一卡通",
            "_id": "17",
            "id": "2053"
        },
        {
            "name": "嘉義弘道店",
            "address": "嘉義市東區671林森東路239號弘道樓1樓（私立興華中學）",
            "phone": "05-2774451",
            "lat": 23.489400863647,
            "lng": 120.46399688721,
            "service": "悠遊卡加值,一卡通",
            "_id": "333",
            "id": "3312"
        },
        {
            "name": "嘉義啟園店",
            "address": "嘉義市東區671啟明路283號",
            "phone": "05-2940215",
            "lat": 23.483999252319,
            "lng": 120.46299743652,
            "service": "提款服務,悠遊卡加值,咖啡機,相片沖洗機,Life-ET(購票)服務,一卡通",
            "_id": "700",
            "id": "3990"
        },
        {
            "name": "嘉義新生店",
            "address": "嘉義市東區671新生路798號",
            "phone": "05-2786903",
            "lat": 23.495700836182,
            "lng": 120.45500183105,
            "service": "提款服務,悠遊卡加值,咖啡機,Life-ET(購票)服務,一卡通",
            "_id": "1329",
            "id": "P727"
        },
        {
            "name": "嘉義國興店",
            "address": "嘉義市東區671興業東路160號",
            "phone": "05-2949255",
            "lat": 23.46960067749,
            "lng": 120.45800018311,
            "service": "悠遊卡加值,咖啡機,相片沖洗機,Life-ET(購票)服務,一卡通",
            "_id": "762",
            "id": "4076"
        },
        {
            "name": "嘉義嘉體店",
            "address": "嘉義市東區671體育路79號",
            "phone": "05-2949296",
            "lat": 23.474000930786,
            "lng": 120.46099853516,
            "service": "悠遊卡加值,咖啡機,Life-ET(購票)服務,一卡通",
            "_id": "852",
            "id": "4185"
        }
    ]
}