{
    "city_name": "基隆市",
    "stores": [
        {
            "name": "基隆百福店",
            "address": "基隆市七堵區206百五街43號,福二街206號",
            "phone": "02-24529092",
            "lat": 25.083999633789,
            "lng": 121.69599914551,
            "service": "提款服務,悠遊卡加值,咖啡機,相片沖洗機,Life-ET(購票)服務,一卡通",
            "_id": "368",
            "id": "3398"
        },
        {
            "name": "基隆七堵店",
            "address": "基隆市七堵區206實踐路182號1樓",
            "phone": "02-89781324",
            "lat": 25.084800720215,
            "lng": 121.69400024414,
            "service": "",
            "_id": "919",
            "id": "4273"
        },
        {
            "name": "基隆隆五店",
            "address": "基隆市仁愛區200仁五路35號一樓",
            "phone": "02-24211387",
            "lat": 25.127300262451,
            "lng": 121.74099731445,
            "service": "悠遊卡加值,咖啡機,Life-ET(購票)服務,一卡通",
            "_id": "1205",
            "id": "3128"
        },
        {
            "name": "基隆隆鑽店",
            "address": "基隆市仁愛區200港西街7號",
            "phone": "02-24266857",
            "lat": 25.133100509644,
            "lng": 121.73999786377,
            "service": "悠遊卡加值,咖啡機,相片沖洗機,Life-ET(購票)服務",
            "_id": "387",
            "id": "3447"
        },
        {
            "name": "基隆東岸店",
            "address": "基隆市仁愛區200愛三路130號",
            "phone": "02-89782048",
            "lat": 25.130300521851,
            "lng": 121.7440032959,
            "service": "悠遊卡加值,咖啡機,Life-ET(購票)服務,一卡通",
            "_id": "906",
            "id": "4251"
        },
        {
            "name": "基隆隆愛店",
            "address": "基隆市仁愛區200愛四路40號一樓二樓三樓",
            "phone": "02-24288959",
            "lat": 25.128499984741,
            "lng": 121.7440032959,
            "service": "提款服務,悠遊卡加值,咖啡機,Life-ET(購票)服務,一卡通",
            "_id": "315",
            "id": "3272"
        },
        {
            "name": "基隆旭隆店",
            "address": "基隆市仁愛區200精一路1號",
            "phone": "02-24285227",
            "lat": 25.126800537109,
            "lng": 121.74199676514,
            "service": "提款服務,悠遊卡加值,咖啡機,Life-ET(購票)服務,一卡通",
            "_id": "197",
            "id": "2666"
        },
        {
            "name": "基隆隆醫店",
            "address": "基隆市信義區201信二路２６８號一樓",
            "phone": "02-89782443",
            "lat": 25.130399703979,
            "lng": 121.74900054932,
            "service": "悠遊卡加值,咖啡機,Life-ET(購票)服務,一卡通",
            "_id": "773",
            "id": "4088"
        },
        {
            "name": "基隆隆碇店",
            "address": "基隆市暖暖區205源遠路243號一樓全部",
            "phone": "02-24596245",
            "lat": 25.09880065918,
            "lng": 121.75399780273,
            "service": "咖啡機,相片沖洗機,Life-ET(購票)服務,一卡通",
            "_id": "481",
            "id": "3643"
        }
    ]
}