{
    "city_name": "高雄市",
    "stores": [
        {
            "name": "高市高進店",
            "address": "高雄市三民區807九如一路２２７號",
            "phone": "07-3846706",
            "lat": 22.637100219727,
            "lng": 120.33799743652,
            "service": "悠遊卡加值,咖啡機,Life-ET(購票)服務,一卡通",
            "_id": "183",
            "id": "2641"
        },
        {
            "name": "高市科工店",
            "address": "高雄市三民區807九如一路533、535號",
            "phone": "07-3890536",
            "lat": 22.639099121094,
            "lng": 120.327003479,
            "service": "提款服務,悠遊卡加值,咖啡機,相片沖洗機,Life-ET(購票)服務",
            "_id": "308",
            "id": "3247"
        },
        {
            "name": "高市文藻店",
            "address": "高雄市三民區807民族一路900號(行政大樓B1福利社)",
            "phone": "07-2621151",
            "lat": 22.670700073242,
            "lng": 120.31800079346,
            "service": "",
            "_id": "907",
            "id": "4252"
        },
        {
            "name": "高市建工店",
            "address": "高雄市三民區807建工路304號",
            "phone": "07-3851317",
            "lat": 22.653600692749,
            "lng": 120.33200073242,
            "service": "提款服務,悠遊卡加值,咖啡機,Life-ET(購票)服務,一卡通",
            "_id": "1340",
            "id": "T280"
        },
        {
            "name": "高市高應大店",
            "address": "高雄市三民區807建工路415號",
            "phone": "07-3838825",
            "lat": 22.647899627686,
            "lng": 120.32900238037,
            "service": "悠遊卡加值,咖啡機,Life-ET(購票)服務,一卡通",
            "_id": "349",
            "id": "3350"
        },
        {
            "name": "高市高順店",
            "address": "高雄市三民區807建工路582號",
            "phone": "07-3906143",
            "lat": 22.649799346924,
            "lng": 120.32399749756,
            "service": "提款服務,悠遊卡加值,咖啡機,Life-ET(購票)服務,一卡通",
            "_id": "1052",
            "id": "2282"
        },
        {
            "name": "高市大港店",
            "address": "高雄市三民區807建國二路210,212,214號1樓",
            "phone": "07-2621135",
            "lat": 22.637699127197,
            "lng": 120.30599975586,
            "service": "提款服務,悠遊卡加值,咖啡機,相片沖洗機,Life-ET(購票)服務,一卡通",
            "_id": "893",
            "id": "4235"
        },
        {
            "name": "高市鼎力店",
            "address": "高雄市三民區807鼎力路100號",
            "phone": "07-2620127",
            "lat": 22.664699554443,
            "lng": 120.32199859619,
            "service": "悠遊卡加值,咖啡機,Life-ET(購票)服務,一卡通",
            "_id": "770",
            "id": "4085"
        },
        {
            "name": "高市鼎金店",
            "address": "高雄市三民區807鼎中路139號",
            "phone": "07-2621024",
            "lat": 22.662000656128,
            "lng": 120.31900024414,
            "service": "一卡通",
            "_id": "822",
            "id": "4151"
        },
        {
            "name": "高市鼎中店",
            "address": "高雄市三民區807鼎中路816,818號",
            "phone": "07-3464335",
            "lat": 22.676300048828,
            "lng": 120.32299804688,
            "service": "提款服務,悠遊卡加值,咖啡機,Life-ET(購票)服務,一卡通",
            "_id": "1341",
            "id": "T283"
        },
        {
            "name": "高縣高龍店",
            "address": "高雄市大社區815中山路４５９號",
            "phone": "07-3538951",
            "lat": 22.731300354004,
            "lng": 120.35399627686,
            "service": "提款服務,悠遊卡加值,咖啡機,相片沖洗機,Life-ET(購票)服務",
            "_id": "146",
            "id": "2562"
        },
        {
            "name": "大社鑫龍店",
            "address": "高雄市大社區815金龍路120號一樓",
            "phone": "07-3529179",
            "lat": 22.727300643921,
            "lng": 120.35399627686,
            "service": "提款服務,悠遊卡加值,Life-ET(購票)服務,一卡通",
            "_id": "610",
            "id": "3875"
        },
        {
            "name": "高縣光明店",
            "address": "高雄市大寮區831大寮路830號                           ",
            "phone": "07-7880716",
            "lat": 22.590900421143,
            "lng": 120.41999816895,
            "service": "提款服務,悠遊卡加值,咖啡機,相片沖洗機,Life-ET(購票)服務,一卡通",
            "_id": "59",
            "id": "2166"
        },
        {
            "name": "大寮正順店",
            "address": "高雄市大寮區831中正路22號",
            "phone": "07-2621141",
            "lat": 22.618299484253,
            "lng": 120.38800048828,
            "service": "悠遊卡加值,咖啡機,Life-ET(購票)服務",
            "_id": "710",
            "id": "4003"
        },
        {
            "name": "高縣高庄店",
            "address": "高雄市大寮區831中庄村中庄路1號",
            "phone": "07-7037470",
            "lat": 22.634399414062,
            "lng": 120.39499664307,
            "service": "提款服務,悠遊卡加值,Life-ET(購票)服務,一卡通",
            "_id": "1126",
            "id": "2781"
        },
        {
            "name": "高縣潮明店",
            "address": "高雄市大寮區831光明路一段678號",
            "phone": "07-7874133",
            "lat": 22.569999694824,
            "lng": 120.41999816895,
            "service": "提款服務,悠遊卡加值,Life-ET(購票)服務,一卡通",
            "_id": "523",
            "id": "3720"
        },
        {
            "name": "大寮華明店",
            "address": "高雄市大寮區831光明路二段1-1號一樓",
            "phone": "07-2620250",
            "lat": 22.583000183105,
            "lng": 120.42099761963,
            "service": "提款服務,悠遊卡加值,咖啡機,Life-ET(購票)服務,一卡通",
            "_id": "742",
            "id": "4049"
        },
        {
            "name": "高縣高金店",
            "address": "高雄市大寮區831林厝路９６號",
            "phone": "07-7813983",
            "lat": 22.613700866699,
            "lng": 120.40799713135,
            "service": "提款服務,悠遊卡加值,Life-ET(購票)服務",
            "_id": "370",
            "id": "3401"
        },
        {
            "name": "高縣後庄店",
            "address": "高雄市大寮區831後庄村成功路60號",
            "phone": "07-7036917",
            "lat": 22.637300491333,
            "lng": 120.39099884033,
            "service": "提款服務,悠遊卡加值,相片沖洗機,Life-ET(購票)服務,一卡通",
            "_id": "1338",
            "id": "S884"
        },
        {
            "name": "高縣萬大店",
            "address": "高雄市大寮區831琉球里28鄰至學路288號",
            "phone": "07-7885005",
            "lat": 22.607000350952,
            "lng": 120.42700195312,
            "service": "悠遊卡加值,咖啡機,Life-ET(購票)服務",
            "_id": "346",
            "id": "3341"
        },
        {
            "name": "大寮潮龍店",
            "address": "高雄市大寮區831華中南路153號",
            "phone": "07-2621134",
            "lat": 22.565999984741,
            "lng": 120.42900085449,
            "service": "提款服務,悠遊卡加值,咖啡機,Life-ET(購票)服務,一卡通",
            "_id": "838",
            "id": "4169"
        },
        {
            "name": "大寮新林店",
            "address": "高雄市大寮區831新厝路1號",
            "phone": "07-2620139",
            "lat": 22.561000823975,
            "lng": 120.41100311279,
            "service": "悠遊卡加值,咖啡機,相片沖洗機,Life-ET(購票)服務,一卡通",
            "_id": "901",
            "id": "4245"
        },
        {
            "name": "大寮興會結店",
            "address": "高雄市大寮區831會結路37-3號",
            "phone": "07-2620727",
            "lat": 22.553899765015,
            "lng": 120.422996521,
            "service": "悠遊卡加值,Life-ET(購票)服務,一卡通",
            "_id": "921",
            "id": "4277"
        },
        {
            "name": "高縣翁園店",
            "address": "高雄市大寮區831萬丹路1112號",
            "phone": "07-7836842",
            "lat": 22.611600875854,
            "lng": 120.41300201416,
            "service": "提款服務,悠遊卡加值,相片沖洗機,Life-ET(購票)服務,一卡通",
            "_id": "352",
            "id": "3356"
        },
        {
            "name": "大寮鑫鳳林店",
            "address": "高雄市大寮區831鳳林三路97&99&101號",
            "phone": "07-2620263",
            "lat": 22.596599578857,
            "lng": 120.40100097656,
            "service": "提款服務,悠遊卡加值,咖啡機,相片沖洗機,Life-ET(購票)服務",
            "_id": "701",
            "id": "3992"
        },
        {
            "name": "大寮江山店",
            "address": "高雄市大寮區831鳳屏二路84,86,88號",
            "phone": "07-2620300",
            "lat": 22.640800476074,
            "lng": 120.40899658203,
            "service": "悠遊卡加值,咖啡機,Life-ET(購票)服務,一卡通",
            "_id": "842",
            "id": "4173"
        },
        {
            "name": "大樹普門店",
            "address": "高雄市大樹區840大坑路140-11號",
            "phone": "07-2620239",
            "lat": 22.709699630737,
            "lng": 120.44100189209,
            "service": "悠遊卡加值,咖啡機,相片沖洗機,Life-ET(購票)服務",
            "_id": "694",
            "id": "3982"
        },
        {
            "name": "大樹義大二店",
            "address": "高雄市大樹區840學城路一段131號",
            "phone": "-",
            "lat": 22.727046966553,
            "lng": 120.40475463867,
            "service": "",
            "_id": "900",
            "id": "4244"
        },
        {
            "name": "大樹義大店",
            "address": "高雄市大樹區840學城路一段131號",
            "phone": "07-2620016",
            "lat": 22.72979927063,
            "lng": 120.40299987793,
            "service": "悠遊卡加值,咖啡機,Life-ET(購票)服務",
            "_id": "889",
            "id": "4231"
        },
        {
            "name": "高市港院店",
            "address": "高雄市小港區812山明路482號",
            "phone": "07-2621047",
            "lat": 22.567399978638,
            "lng": 120.3629989624,
            "service": "悠遊卡加值,咖啡機,Life-ET(購票)服務,一卡通",
            "_id": "874",
            "id": "4212"
        },
        {
            "name": "高市東林店",
            "address": "高雄市小港區812東林路12之5號",
            "phone": "07-8717315",
            "lat": 22.543500900269,
            "lng": 120.375,
            "service": "提款服務,悠遊卡加值,咖啡機,Life-ET(購票)服務,一卡通",
            "_id": "361",
            "id": "3386"
        },
        {
            "name": "高市高旅店",
            "address": "高雄市小港區812博學路579&581號",
            "phone": "07-8010592",
            "lat": 22.565500259399,
            "lng": 120.37000274658,
            "service": "提款服務,悠遊卡加值,咖啡機,相片沖洗機,Life-ET(購票)服務",
            "_id": "1204",
            "id": "3126"
        },
        {
            "name": "仁武新德店",
            "address": "高雄市仁武區814八德中路180號1 樓",
            "phone": "07-2620302",
            "lat": 22.687099456787,
            "lng": 120.33599853516,
            "service": "悠遊卡加值,咖啡機,相片沖洗機,Life-ET(購票)服務,一卡通",
            "_id": "724",
            "id": "4021"
        },
        {
            "name": "仁武正和店",
            "address": "高雄市仁武區814中正路93號及隔壁93號左棟右棟建物全部",
            "phone": "07-2621507",
            "lat": 22.701499938965,
            "lng": 120.34799957275,
            "service": "提款服務,悠遊卡加值,咖啡機,Life-ET(購票)服務",
            "_id": "839",
            "id": "4170"
        },
        {
            "name": "高縣仁忠店",
            "address": "高雄市仁武區814仁和村仁忠路86號,92號1樓",
            "phone": "07-3730282",
            "lat": 22.677799224854,
            "lng": 120.35600280762,
            "service": "提款服務,悠遊卡加值,相片沖洗機,Life-ET(購票)服務,一卡通",
            "_id": "495",
            "id": "3672"
        },
        {
            "name": "高縣鼎仁店",
            "address": "高雄市仁武區814仁雄路467號",
            "phone": "07-3758101",
            "lat": 22.673700332642,
            "lng": 120.33399963379,
            "service": "悠遊卡加值,咖啡機,相片沖洗機,Life-ET(購票)服務,一卡通",
            "_id": "412",
            "id": "3513"
        },
        {
            "name": "高縣鳳仁店",
            "address": "高雄市仁武區814永宏巷2號",
            "phone": "07-3741417",
            "lat": 22.712999343872,
            "lng": 120.33799743652,
            "service": "提款服務,悠遊卡加值,咖啡機,相片沖洗機,Life-ET(購票)服務,一卡通",
            "_id": "1333",
            "id": "S272"
        },
        {
            "name": "仁武鳳成店",
            "address": "高雄市仁武區814考潭里鳳仁路4-6號",
            "phone": "07-2621175",
            "lat": 22.671699523926,
            "lng": 120.36100006104,
            "service": "悠遊卡加值,咖啡機,相片沖洗機,Life-ET(購票)服務,一卡通",
            "_id": "905",
            "id": "4250"
        },
        {
            "name": "高市海榮二店",
            "address": "高雄市左營區813介壽路１６號",
            "phone": "-",
            "lat": 22.680883407593,
            "lng": 120.28714752197,
            "service": "",
            "_id": "760",
            "id": "4074"
        },
        {
            "name": "高市海榮店",
            "address": "高雄市左營區813介壽路１６號",
            "phone": "07-2621059",
            "lat": 22.684299468994,
            "lng": 120.2740020752,
            "service": "悠遊卡加值,咖啡機,Life-ET(購票)服務,一卡通",
            "_id": "803",
            "id": "4128"
        },
        {
            "name": "高市高育店",
            "address": "高雄市左營區813明華一路72號及辛亥路87號",
            "phone": "07-5566305",
            "lat": 22.663000106812,
            "lng": 120.30899810791,
            "service": "提款服務,悠遊卡加值,咖啡機,相片沖洗機,Life-ET(購票)服務,一卡通",
            "_id": "1167",
            "id": "3049"
        },
        {
            "name": "高市海總二店",
            "address": "高雄市左營區813軍校路553號(國軍左營總醫院1樓大廳)",
            "phone": "",
            "lat": 22.701528549194,
            "lng": 120.29041290283,
            "service": "",
            "_id": "321",
            "id": "3284"
        },
        {
            "name": "高市海總店",
            "address": "高雄市左營區813軍校路553號(國軍左營總醫院1樓大廳)",
            "phone": "07-5884073",
            "lat": 22.701599121094,
            "lng": 120.29100036621,
            "service": "悠遊卡加值,Life-ET(購票)服務,一卡通",
            "_id": "666",
            "id": "3950"
        },
        {
            "name": "高市高富店",
            "address": "高雄市左營區813富民路350號",
            "phone": "07-5586429",
            "lat": 22.664600372314,
            "lng": 120.30500030518,
            "service": "悠遊卡加值,咖啡機,相片沖洗機,Life-ET(購票)服務,一卡通",
            "_id": "270",
            "id": "2999"
        },
        {
            "name": "高市合群店",
            "address": "高雄市左營區813緯六路250,252號",
            "phone": "07-2621063",
            "lat": 22.697500228882,
            "lng": 120.28700256348,
            "service": "提款服務,悠遊卡加值,咖啡機,相片沖洗機,Life-ET(購票)服務,一卡通",
            "_id": "835",
            "id": "4165"
        },
        {
            "name": "高縣永新店",
            "address": "高雄市永安區828維新路155-1號",
            "phone": "07-6913679",
            "lat": 22.808000564575,
            "lng": 120.2440032959,
            "service": "提款服務,悠遊卡加值,咖啡機,相片沖洗機,Life-ET(購票)服務,一卡通",
            "_id": "451",
            "id": "3586"
        },
        {
            "name": "杉林大愛店",
            "address": "高雄市杉林區846大愛路1號",
            "phone": "07-2621084",
            "lat": 22.969100952148,
            "lng": 120.54100036621,
            "service": "悠遊卡加值,咖啡機,相片沖洗機,Life-ET(購票)服務,一卡通",
            "_id": "786",
            "id": "4107"
        },
        {
            "name": "高縣航院二店",
            "address": "高雄市岡山區820介壽西路198號",
            "phone": "",
            "lat": 22.784454345703,
            "lng": 120.28106689453,
            "service": "",
            "_id": "520",
            "id": "3717"
        },
        {
            "name": "高縣航院店",
            "address": "高雄市岡山區820介壽西路198號",
            "phone": "07-6250249",
            "lat": 22.786800384521,
            "lng": 120.27799987793,
            "service": "悠遊卡加值,Life-ET(購票)服務,一卡通",
            "_id": "519",
            "id": "3714"
        },
        {
            "name": "高縣巨輪二店",
            "address": "高雄市岡山區820巨輪路1號",
            "phone": "",
            "lat": 22.797222137451,
            "lng": 120.27850341797,
            "service": "",
            "_id": "526",
            "id": "3726"
        },
        {
            "name": "高縣巨輪店",
            "address": "高雄市岡山區820巨輪路1號",
            "phone": "07-6257345",
            "lat": 22.799100875854,
            "lng": 120.27899932861,
            "service": "悠遊卡加值,Life-ET(購票)服務,一卡通",
            "_id": "518",
            "id": "3712"
        },
        {
            "name": "高縣岡本店",
            "address": "高雄市岡山區820本洲路55-47號",
            "phone": "07-6221841",
            "lat": 22.805400848389,
            "lng": 120.27700042725,
            "service": "提款服務,悠遊卡加值,咖啡機,相片沖洗機,Life-ET(購票)服務,一卡通",
            "_id": "525",
            "id": "3725"
        },
        {
            "name": "高縣岡仁店",
            "address": "高雄市岡山區820筧橋路1號",
            "phone": "07-6297061",
            "lat": 22.78870010376,
            "lng": 120.29599761963,
            "service": "提款服務,悠遊卡加值,咖啡機,Life-ET(購票)服務,一卡通",
            "_id": "490",
            "id": "3661"
        },
        {
            "name": "岡山仁貴店",
            "address": "高雄市岡山區820嘉新東路79之5號",
            "phone": "07-2621520",
            "lat": 22.807100296021,
            "lng": 120.30100250244,
            "service": "提款服務,悠遊卡加值,咖啡機,相片沖洗機,Life-ET(購票)服務,一卡通",
            "_id": "802",
            "id": "4127"
        },
        {
            "name": "高縣高林店",
            "address": "高雄市林園區832忠孝西路３５號及福興街１８２號",
            "phone": "07-6465595",
            "lat": 22.506700515747,
            "lng": 120.39399719238,
            "service": "提款服務,悠遊卡加值,咖啡機,Life-ET(購票)服務",
            "_id": "137",
            "id": "2545"
        },
        {
            "name": "林園建佑店",
            "address": "高雄市林園區832東林西路356號",
            "phone": "07-2621125",
            "lat": 22.503799438477,
            "lng": 120.3870010376,
            "service": "悠遊卡加值,Life-ET(購票)服務",
            "_id": "733",
            "id": "4037"
        },
        {
            "name": "高市大同店",
            "address": "高雄市前金區801大同二路11號",
            "phone": "07-2613539",
            "lat": 22.627099990845,
            "lng": 120.29599761963,
            "service": "提款服務,悠遊卡加值,咖啡機,Life-ET(購票)服務",
            "_id": "1344",
            "id": "U295"
        },
        {
            "name": "高市漢神店",
            "address": "高雄市前金區801成功一路270號",
            "phone": "07-2510687",
            "lat": 22.619899749756,
            "lng": 120.29599761963,
            "service": "提款服務,悠遊卡加值,咖啡機,Life-ET(購票)服務,一卡通",
            "_id": "49",
            "id": "2138"
        },
        {
            "name": "高市復興店",
            "address": "高雄市前鎮區806中山二路1號",
            "phone": "07-3328803",
            "lat": 22.607299804688,
            "lng": 120.30699920654,
            "service": "悠遊卡加值,咖啡機,相片沖洗機,Life-ET(購票)服務,一卡通",
            "_id": "18",
            "id": "2054"
        },
        {
            "name": "高市三環店",
            "address": "高雄市前鎮區806中山二路268之1號",
            "phone": "07-2621131",
            "lat": 22.613700866699,
            "lng": 120.30500030518,
            "service": "悠遊卡加值,咖啡機,相片沖洗機,Life-ET(購票)服務",
            "_id": "881",
            "id": "4222"
        },
        {
            "name": "高市高毅二店",
            "address": "高雄市前鎮區806中華五路９６９巷３號",
            "phone": "",
            "lat": 22.601757049561,
            "lng": 120.30638122559,
            "service": "",
            "_id": "1109",
            "id": "2744"
        },
        {
            "name": "高市高工店",
            "address": "高雄市前鎮區806光華二路80號",
            "phone": "07-7168504",
            "lat": 22.610500335693,
            "lng": 120.31800079346,
            "service": "悠遊卡加值,相片沖洗機,Life-ET(購票)服務",
            "_id": "668",
            "id": "3952"
        },
        {
            "name": "高市福鑽店",
            "address": "高雄市前鎮區806金福路95&97號",
            "phone": "07-2621142",
            "lat": 22.571899414062,
            "lng": 120.32900238037,
            "service": "提款服務,悠遊卡加值,咖啡機,相片沖洗機,Life-ET(購票)服務,一卡通",
            "_id": "689",
            "id": "3976"
        },
        {
            "name": "高市鎮港店",
            "address": "高雄市前鎮區806新生路135-2,3,4號及漁港北一路1,3號",
            "phone": "07-2620023",
            "lat": 22.574899673462,
            "lng": 120.31700134277,
            "service": "提款服務,悠遊卡加值,咖啡機,相片沖洗機,Life-ET(購票)服務,一卡通",
            "_id": "725",
            "id": "4022"
        },
        {
            "name": "高市瑞福店",
            "address": "高雄市前鎮區806瑞福路185號",
            "phone": "07-7169160",
            "lat": 22.609100341797,
            "lng": 120.33599853516,
            "service": "提款服務,悠遊卡加值,咖啡機,相片沖洗機,Life-ET(購票)服務",
            "_id": "382",
            "id": "3435"
        },
        {
            "name": "高市漁港店",
            "address": "高雄市前鎮區806漁港中二路42號",
            "phone": "07-8158437",
            "lat": 22.569900512695,
            "lng": 120.31999969482,
            "service": "提款服務,悠遊卡加值,咖啡機,相片沖洗機,Life-ET(購票)服務,一卡通",
            "_id": "1343",
            "id": "U288"
        },
        {
            "name": "高市鎮榮店",
            "address": "高雄市前鎮區806鎮興路１０７號及１０９－１號",
            "phone": "07-8132620",
            "lat": 22.591199874878,
            "lng": 120.31300354004,
            "service": "提款服務,悠遊卡加值,咖啡機,相片沖洗機,Life-ET(購票)服務",
            "_id": "48",
            "id": "2136"
        },
        {
            "name": "美濃城門店",
            "address": "高雄市美濃區843合和里成功路218號",
            "phone": "07-2621218",
            "lat": 22.893199920654,
            "lng": 120.54900360107,
            "service": "悠遊卡加值,咖啡機,相片沖洗機,Life-ET(購票)服務,一卡通",
            "_id": "699",
            "id": "3989"
        },
        {
            "name": "高市三信店",
            "address": "高雄市苓雅區802三多一路186號(創學中心1樓) ",
            "phone": "07-2620377",
            "lat": 22.622800827026,
            "lng": 120.32800292969,
            "service": "",
            "_id": "933",
            "id": "4302"
        },
        {
            "name": "高市軍醫二店",
            "address": "高雄市苓雅區802中正一路二號",
            "phone": "",
            "lat": 22.625844955444,
            "lng": 120.34104156494,
            "service": "",
            "_id": "209",
            "id": "2844"
        },
        {
            "name": "高市軍醫店",
            "address": "高雄市苓雅區802中正一路二號",
            "phone": "07-7492295",
            "lat": 22.626399993896,
            "lng": 120.34100341797,
            "service": "悠遊卡加值,咖啡機,Life-ET(購票)服務,一卡通",
            "_id": "1042",
            "id": "2265"
        },
        {
            "name": "高市正民店",
            "address": "高雄市苓雅區802正言路11,13號",
            "phone": "07-2621019",
            "lat": 22.629800796509,
            "lng": 120.32900238037,
            "service": "提款服務,悠遊卡加值,咖啡機,相片沖洗機,Life-ET(購票)服務,一卡通",
            "_id": "796",
            "id": "4121"
        },
        {
            "name": "高市漢神二店",
            "address": "高雄市苓雅區802成功一路268,270號",
            "phone": "",
            "lat": 22.616647720337,
            "lng": 120.29694366455,
            "service": "",
            "_id": "147",
            "id": "2564"
        },
        {
            "name": "高市武慶店",
            "address": "高雄市苓雅區802武慶三路74及76號",
            "phone": "07-7510152",
            "lat": 22.619899749756,
            "lng": 120.33200073242,
            "service": "提款服務,悠遊卡加值,咖啡機,相片沖洗機,Life-ET(購票)服務",
            "_id": "406",
            "id": "3495"
        },
        {
            "name": "高市山隆苓雅店",
            "address": "高雄市苓雅區802武營路433號",
            "phone": "07-2621039",
            "lat": 22.616600036621,
            "lng": 120.33699798584,
            "service": "提款服務,悠遊卡加值,咖啡機,Life-ET(購票)服務,一卡通",
            "_id": "888",
            "id": "4230"
        },
        {
            "name": "高市英祥店",
            "address": "高雄市苓雅區802英祥街17號",
            "phone": "07-2620435",
            "lat": 22.616800308228,
            "lng": 120.32599639893,
            "service": "悠遊卡加值,咖啡機,相片沖洗機,Life-ET(購票)服務,一卡通",
            "_id": "755",
            "id": "4067"
        },
        {
            "name": "高市雅福店",
            "address": "高雄市苓雅區802福德二路5號",
            "phone": "07-7275486",
            "lat": 22.630100250244,
            "lng": 120.32800292969,
            "service": "提款服務,悠遊卡加值,相片沖洗機,Life-ET(購票)服務,一卡通",
            "_id": "318",
            "id": "3277"
        },
        {
            "name": "高市林德店",
            "address": "高雄市苓雅區802廣州一街139之1及139之2號壹樓",
            "phone": "07-7226912",
            "lat": 22.62380027771,
            "lng": 120.31700134277,
            "service": "提款服務,悠遊卡加值,Life-ET(購票)服務,一卡通",
            "_id": "440",
            "id": "3560"
        },
        {
            "name": "高縣神農店",
            "address": "高雄市鳥松區833仁美里神農路720-1號",
            "phone": "07-7355584",
            "lat": 22.649499893188,
            "lng": 120.39199829102,
            "service": "提款服務,悠遊卡加值,咖啡機,相片沖洗機,Life-ET(購票)服務,一卡通",
            "_id": "465",
            "id": "3613"
        },
        {
            "name": "高縣松陽店",
            "address": "高雄市鳥松區833本館路279號1樓",
            "phone": "07-3709609",
            "lat": 22.652299880981,
            "lng": 120.33999633789,
            "service": "悠遊卡加值,咖啡機,相片沖洗機,Life-ET(購票)服務,一卡通",
            "_id": "517",
            "id": "3711"
        },
        {
            "name": "高市六合店",
            "address": "高雄市新興區800六合二路59號",
            "phone": "07-2855880",
            "lat": 22.632299423218,
            "lng": 120.30000305176,
            "service": "提款服務,悠遊卡加值,咖啡機,相片沖洗機,Life-ET(購票)服務,一卡通",
            "_id": "649",
            "id": "3924"
        },
        {
            "name": "高市盛昌店",
            "address": "高雄市楠梓區811三山街61之7號",
            "phone": "07-2620670",
            "lat": 22.711999893188,
            "lng": 120.28600311279,
            "service": "悠遊卡加值,Life-ET(購票)服務,一卡通",
            "_id": "771",
            "id": "4086"
        },
        {
            "name": "高市海洋店",
            "address": "高雄市楠梓區811海專路142號(國立海洋科技大學)  ",
            "phone": "07-3649427",
            "lat": 22.728000640869,
            "lng": 120.31500244141,
            "service": "悠遊卡加值,Life-ET(購票)服務,一卡通",
            "_id": "584",
            "id": "3833"
        },
        {
            "name": "高市陸橋店",
            "address": "高雄市楠梓區811高楠公路1757號",
            "phone": "07-3650112",
            "lat": 22.728200912476,
            "lng": 120.32099914551,
            "service": "提款服務,悠遊卡加值,咖啡機,相片沖洗機,Life-ET(購票)服務",
            "_id": "1342",
            "id": "T711"
        },
        {
            "name": "高市高梓二店",
            "address": "高雄市楠梓區811楠梓新路２５７＆２５９號一樓",
            "phone": "",
            "lat": 22.727823257446,
            "lng": 120.32595062256,
            "service": "",
            "_id": "186",
            "id": "2644"
        },
        {
            "name": "高市高梓店",
            "address": "高雄市楠梓區811楠梓新路２５７＆２５９號一樓",
            "phone": "07-3544796",
            "lat": 22.72859954834,
            "lng": 120.32599639893,
            "service": "提款服務,悠遊卡加值,咖啡機,相片沖洗機,Life-ET(購票)服務,一卡通",
            "_id": "143",
            "id": "2558"
        },
        {
            "name": "高市藍田店",
            "address": "高雄市楠梓區811藍田路948號",
            "phone": "07-2621095",
            "lat": 22.72739982605,
            "lng": 120.28099822998,
            "service": "悠遊卡加值,咖啡機,相片沖洗機,Life-ET(購票)服務,一卡通",
            "_id": "861",
            "id": "4195"
        },
        {
            "name": "高縣高路店",
            "address": "高雄市路竹區821中正路３１號1樓",
            "phone": "07-6970980",
            "lat": 22.857099533081,
            "lng": 120.26100158691,
            "service": "提款服務,悠遊卡加值,咖啡機,相片沖洗機,Life-ET(購票)服務,一卡通",
            "_id": "1144",
            "id": "2826"
        },
        {
            "name": "路竹社東店",
            "address": "高雄市路竹區821復興路319號",
            "phone": "07-2620028",
            "lat": 22.84760093689,
            "lng": 120.2740020752,
            "service": "悠遊卡加值,咖啡機,Life-ET(購票)服務,一卡通",
            "_id": "753",
            "id": "4062"
        },
        {
            "name": "高市鼓元店",
            "address": "高雄市鼓山區804鼓元街84號",
            "phone": "07-5321379",
            "lat": 22.622100830078,
            "lng": 120.27200317383,
            "service": "提款服務,悠遊卡加值,Life-ET(購票)服務,一卡通",
            "_id": "1339",
            "id": "T279"
        },
        {
            "name": "高市學亨店",
            "address": "高雄市鼓山區804蓮海路70號",
            "phone": "07-5250169",
            "lat": 22.627700805664,
            "lng": 120.2679977417,
            "service": "提款服務,悠遊卡加值,咖啡機,Life-ET(購票)服務,一卡通",
            "_id": "576",
            "id": "3817"
        },
        {
            "name": "高市濱海店",
            "address": "高雄市鼓山區804濱海一路109號",
            "phone": "07-2620002",
            "lat": 22.619600296021,
            "lng": 120.26999664307,
            "service": "提款服務,悠遊卡加值,咖啡機,相片沖洗機,Life-ET(購票)服務,一卡通",
            "_id": "744",
            "id": "4051"
        },
        {
            "name": "高市旗海店",
            "address": "高雄市旗津區805中洲三路480號",
            "phone": "07-5716745",
            "lat": 22.607200622559,
            "lng": 120.2740020752,
            "service": "悠遊卡加值,Life-ET(購票)服務,一卡通",
            "_id": "492",
            "id": "3667"
        },
        {
            "name": "鳳山高行店",
            "address": "高雄市鳳山區830力行路８１＆８３號",
            "phone": "07-7470646",
            "lat": 22.639200210571,
            "lng": 120.36699676514,
            "service": "提款服務,悠遊卡加值,Life-ET(購票)服務,一卡通",
            "_id": "1119",
            "id": "2760"
        },
        {
            "name": "鳳山工協店",
            "address": "高雄市鳳山區830工協街26,28號",
            "phone": "07-2621357",
            "lat": 22.629999160767,
            "lng": 120.37300109863,
            "service": "",
            "_id": "908",
            "id": "4253"
        },
        {
            "name": "鳳山館前店",
            "address": "高雄市鳳山區830中山路203號",
            "phone": "07-7104758",
            "lat": 22.624000549316,
            "lng": 120.3570022583,
            "service": "提款服務,悠遊卡加值,咖啡機,Life-ET(購票)服務,一卡通",
            "_id": "1334",
            "id": "S284"
        },
        {
            "name": "鳳山五福店",
            "address": "高雄市鳳山區830五福二路82號",
            "phone": "07-8121614",
            "lat": 22.58810043335,
            "lng": 120.32599639893,
            "service": "提款服務,悠遊卡加值,相片沖洗機,Life-ET(購票)服務,一卡通",
            "_id": "1332",
            "id": "S269"
        },
        {
            "name": "鳳山文鳳店",
            "address": "高雄市鳳山區830文化路71號&69之6號",
            "phone": "07-7905137",
            "lat": 22.634000778198,
            "lng": 120.35399627686,
            "service": "提款服務,悠遊卡加值,咖啡機,Life-ET(購票)服務,一卡通",
            "_id": "494",
            "id": "3670"
        },
        {
            "name": "鳳山文衡店",
            "address": "高雄市鳳山區830文衡路248號壹樓",
            "phone": "07-7804118",
            "lat": 22.638599395752,
            "lng": 120.35600280762,
            "service": "提款服務,悠遊卡加值,咖啡機,相片沖洗機,Life-ET(購票)服務,一卡通",
            "_id": "656",
            "id": "3932"
        },
        {
            "name": "鳳山衡濱店",
            "address": "高雄市鳳山區830文衡路528號",
            "phone": "07-2621105",
            "lat": 22.641500473022,
            "lng": 120.34899902344,
            "service": "悠遊卡加值,咖啡機,Life-ET(購票)服務,一卡通",
            "_id": "819",
            "id": "4148"
        },
        {
            "name": "鳳山光復店",
            "address": "高雄市鳳山區830光復路二段229號",
            "phone": "07-7102953",
            "lat": 22.629199981689,
            "lng": 120.34400177002,
            "service": "提款服務,悠遊卡加值,Life-ET(購票)服務,一卡通",
            "_id": "1337",
            "id": "S705"
        },
        {
            "name": "鳳山鳳福店",
            "address": "高雄市鳳山區830自強一路177號",
            "phone": "07-8221050",
            "lat": 22.591999053955,
            "lng": 120.32900238037,
            "service": "提款服務,悠遊卡加值,Life-ET(購票)服務",
            "_id": "1335",
            "id": "S373"
        },
        {
            "name": "鳳山鳳祥店",
            "address": "高雄市鳳山區830自強二路88號1樓",
            "phone": "07-8417853",
            "lat": 22.595399856567,
            "lng": 120.32800292969,
            "service": "悠遊卡加值,Life-ET(購票)服務,一卡通",
            "_id": "505",
            "id": "3690"
        },
        {
            "name": "鳳山高鳳店",
            "address": "高雄市鳳山區830高鳳一路1號",
            "phone": "07-7921494",
            "lat": 22.589700698853,
            "lng": 120.36599731445,
            "service": "提款服務,悠遊卡加值,咖啡機,Life-ET(購票)服務,一卡通",
            "_id": "1336",
            "id": "S380"
        },
        {
            "name": "鳳山鳳頂店",
            "address": "高雄市鳳山區830高鳳一路70號",
            "phone": "07-2620029",
            "lat": 22.588199615479,
            "lng": 120.36599731445,
            "service": "悠遊卡加值,咖啡機,相片沖洗機,Life-ET(購票)服務,一卡通",
            "_id": "843",
            "id": "4174"
        },
        {
            "name": "鳳山預校店",
            "address": "高雄市鳳山區830凱旋路1-8號",
            "phone": "07-2620829",
            "lat": 22.603000640869,
            "lng": 120.35600280762,
            "service": "悠遊卡加值,咖啡機,Life-ET(購票)服務,一卡通",
            "_id": "782",
            "id": "4099"
        },
        {
            "name": "鳳山博愛店",
            "address": "高雄市鳳山區830博愛路351號",
            "phone": "07-7197845",
            "lat": 22.630699157715,
            "lng": 120.36799621582,
            "service": "提款服務,悠遊卡加值,咖啡機,相片沖洗機,Life-ET(購票)服務,一卡通",
            "_id": "15",
            "id": "2047"
        },
        {
            "name": "鳳山黃埔店",
            "address": "高雄市鳳山區830維武路1號",
            "phone": "07-2621069",
            "lat": 22.620899200439,
            "lng": 120.37100219727,
            "service": "悠遊卡加值,咖啡機,Life-ET(購票)服務,一卡通",
            "_id": "850",
            "id": "4182"
        },
        {
            "name": "鳳山鳳育店",
            "address": "高雄市鳳山區830鳳育路2號及和成路５１９－１號",
            "phone": "07-7962937",
            "lat": 22.594100952148,
            "lng": 120.34300231934,
            "service": "提款服務,悠遊卡加值,咖啡機,相片沖洗機,Life-ET(購票)服務",
            "_id": "320",
            "id": "3282"
        },
        {
            "name": "鳳山金湯店",
            "address": "高雄市鳳山區830鳳頂路1000號105大樓",
            "phone": "07-7437808",
            "lat": 22.610399246216,
            "lng": 120.36399841309,
            "service": "咖啡機,Life-ET(購票)服務,一卡通",
            "_id": "619",
            "id": "3886"
        },
        {
            "name": "鳳山步校店",
            "address": "高雄市鳳山區830鳳頂路1000號142營舍一樓",
            "phone": "07-2621115",
            "lat": 22.610500335693,
            "lng": 120.36599731445,
            "service": "悠遊卡加值,咖啡機,Life-ET(購票)服務,一卡通",
            "_id": "929",
            "id": "4293"
        },
        {
            "name": "鳳山教勤店",
            "address": "高雄市鳳山區830鳳頂路1000號教勤營大樓",
            "phone": "07-7432142",
            "lat": 22.599199295044,
            "lng": 120.36399841309,
            "service": "Life-ET(購票)服務,一卡通",
            "_id": "620",
            "id": "3887"
        },
        {
            "name": "鳳山高頂店",
            "address": "高雄市鳳山區830鳳頂路１７１號１樓",
            "phone": "07-7929175",
            "lat": 22.588199615479,
            "lng": 120.35900115967,
            "service": "提款服務,悠遊卡加值,咖啡機,相片沖洗機,Life-ET(購票)服務",
            "_id": "1128",
            "id": "2784"
        },
        {
            "name": "橋頭仕豐店",
            "address": "高雄市橋頭區825仕豐路111之7號",
            "phone": "07-2620273",
            "lat": 22.749200820923,
            "lng": 120.30599975586,
            "service": "提款服務,咖啡機,Life-ET(購票)服務,一卡通",
            "_id": "686",
            "id": "3972"
        },
        {
            "name": "燕巢工訓店",
            "address": "高雄市燕巢區824中西路1號",
            "phone": "07-2620378",
            "lat": 22.79700088501,
            "lng": 120.3570022583,
            "service": "",
            "_id": "937",
            "id": "4310"
        },
        {
            "name": "燕巢援巢店",
            "address": "高雄市燕巢區824中興北路16號",
            "phone": "07-2620279",
            "lat": 22.793800354004,
            "lng": 120.36199951172,
            "service": "提款服務,悠遊卡加值,咖啡機,相片沖洗機,Life-ET(購票)服務,一卡通",
            "_id": "698",
            "id": "3988"
        }
    ]
}