{
    "city_name": "南投縣",
    "stores": [
        {
            "name": "草屯敦和店",
            "address": "南投縣草屯鎮敦和路47號1樓",
            "lat": 23.980745,
            "lng": 120.6807862,
            "id": "0177"
        },
        {
            "name": "草屯中興店",
            "address": "南投縣草屯鎮中興路210號",
            "lat": 23.9738767,
            "lng": 120.686127,
            "id": "0358"
        },
        {
            "name": "南投新興店",
            "address": "南投縣南投市南營路218號",
            "lat": 23.9337647,
            "lng": 120.691629,
            "id": "0441"
        },
        {
            "name": "草屯虎山店",
            "address": "南投縣草屯鎮新生東路1號",
            "lat": 23.9593255,
            "lng": 120.6848123,
            "id": "0484"
        },
        {
            "name": "南投南鄉店",
            "address": "南投縣南投市南鄉路377.379號",
            "lat": 23.9066551,
            "lng": 120.694541,
            "id": "0503"
        },
        {
            "name": "南投南雲店",
            "address": "南投縣南投市大庄路201-1號",
            "lat": 23.8982105,
            "lng": 120.6834647,
            "id": "0602"
        },
        {
            "name": "南投中興店",
            "address": "南投縣南投市中興路765號",
            "lat": 23.9003176,
            "lng": 120.6868743,
            "id": "0610"
        },
        {
            "name": "名間松嶺店",
            "address": "南投縣名間鄉松嶺街288號1樓",
            "lat": 23.8406695,
            "lng": 120.6311473,
            "id": "0616"
        },
        {
            "name": "名間彰南店",
            "address": "南投縣名間鄉彰南路534號",
            "lat": 23.880941,
            "lng": 120.6924795,
            "id": "0622"
        },
        {
            "name": "南投平山店",
            "address": "南投縣南投市平山里彰南路三段61號1F",
            "lat": 23.9249672,
            "lng": 120.6753423,
            "id": "0663"
        },
        {
            "name": "南投碧興店",
            "address": "南投縣草屯鎮碧興路一段3號",
            "lat": 23.9524999,
            "lng": 120.662866,
            "id": "0736"
        },
        {
            "name": "埔里南昌店",
            "address": "南投縣埔里鎮西安路一段72.74號",
            "lat": 23.9653578,
            "lng": 120.9657865,
            "id": "0868"
        },
        {
            "name": "埔里西寧店",
            "address": "南投縣埔里鎮中山路三段106號",
            "lat": 23.9663536,
            "lng": 120.9632004,
            "id": "0891"
        },
        {
            "name": "南投國姓店",
            "address": "南投縣國姓鄉石門村中興路184號1樓",
            "lat": 24.0401479,
            "lng": 120.8556454,
            "id": "0892"
        },
        {
            "name": "埔里中山店",
            "address": "南投縣埔里鎮中山路三段451號1樓",
            "lat": 23.969454,
            "lng": 120.9541456,
            "id": "0893"
        },
        {
            "name": "埔里信義店",
            "address": "南投縣埔里鎮信義路961號1樓",
            "lat": 23.9716038,
            "lng": 120.9591698,
            "id": "0965"
        },
        {
            "name": "南投復興店",
            "address": "南投縣南投市復興路461號1+2+3樓",
            "lat": 23.91325,
            "lng": 120.684093,
            "id": "1004"
        },
        {
            "name": "南投成功店",
            "address": "南投縣南投市成功三路317號1樓",
            "lat": 23.9252852,
            "lng": 120.6623683,
            "id": "1017"
        },
        {
            "name": "名間華山店",
            "address": "南投縣名間鄉彰南路354-11、354-12號",
            "lat": 23.8682301,
            "lng": 120.693186,
            "id": "1025"
        },
        {
            "name": "竹山秀傳門市",
            "address": "南投縣竹山鎮集山路二段75號1樓",
            "lat": 23.8002226,
            "lng": 120.7139639,
            "id": "1113"
        }
    ]
}