{
    "city_name": "台中市",
    "stores": [
        {
            "name": "台中大連店",
            "address": "台中市北屯區大連路一段202號",
            "lat": 24.1766096,
            "lng": 120.6785871,
            "id": "0073"
        },
        {
            "name": "大甲高中店",
            "address": "台中市大甲區順天路2號1樓",
            "lat": 24.342082,
            "lng": 120.6204516,
            "id": "0079"
        },
        {
            "name": "台中新平店",
            "address": "台中市太平區永平路一段124\/126號",
            "lat": 24.1316872,
            "lng": 120.7169933,
            "id": "0082"
        },
        {
            "name": "台中公益店",
            "address": "台中市西區公益路95號",
            "lat": 24.150617,
            "lng": 120.666808,
            "id": "0092"
        },
        {
            "name": "大肚遊園店",
            "address": "台中市大肚區遊園路二段129、131號",
            "lat": 24.1711915,
            "lng": 120.5799791,
            "id": "0095"
        },
        {
            "name": "台中福星店",
            "address": "台中市西屯區福星路327號",
            "lat": 24.18123,
            "lng": 120.6451768,
            "id": "0098"
        },
        {
            "name": "台中公館店",
            "address": "台中市西區南屯路一段49-1號1樓",
            "lat": 24.1318887,
            "lng": 120.6655151,
            "id": "0105"
        },
        {
            "name": "台中居仁店",
            "address": "台中市西區居仁街23號",
            "lat": 24.1362971,
            "lng": 120.6800522,
            "id": "0108"
        },
        {
            "name": "台中忠太店",
            "address": "台中市北區忠明路369號",
            "lat": 24.163175,
            "lng": 120.667828,
            "id": "0128"
        },
        {
            "name": "台中健行店",
            "address": "台中市北區健行路701號",
            "lat": 24.1591028,
            "lng": 120.6735045,
            "id": "0158"
        },
        {
            "name": "台中綏遠店",
            "address": "台中市北屯區綏遠路二段216號",
            "lat": 24.1750723,
            "lng": 120.6820374,
            "id": "0169"
        },
        {
            "name": "台中向心南店",
            "address": "台中市南屯區向心南路983號",
            "lat": 24.137658,
            "lng": 120.643646,
            "id": "0172"
        },
        {
            "name": "台中黎明店",
            "address": "台中市南屯區黎明路二段510號",
            "lat": 24.1543523,
            "lng": 120.6348907,
            "id": "0187"
        },
        {
            "name": "台中河南店",
            "address": "台中市西屯區河南路二段502號",
            "lat": 24.169448,
            "lng": 120.6421938,
            "id": "0210"
        },
        {
            "name": "台中文山店",
            "address": "台中市南屯區向上路五段125號1、2樓",
            "lat": 24.1505273,
            "lng": 120.6124572,
            "id": "0228"
        },
        {
            "name": "台中仁和店",
            "address": "台中市南區台中路382\/386號",
            "lat": 24.1262521,
            "lng": 120.6839293,
            "id": "0230"
        },
        {
            "name": "台中中工店",
            "address": "台中市西屯區中工三路60.62號1樓",
            "lat": 24.1797094,
            "lng": 120.6191002,
            "id": "0240"
        },
        {
            "name": "沙鹿公明店",
            "address": "台中市沙鹿區忠貞路202、204號",
            "lat": 24.243248,
            "lng": 120.608835,
            "id": "0254"
        },
        {
            "name": "台中華成店",
            "address": "台中市北屯區松義街132號",
            "lat": 24.183889,
            "lng": 120.6983486,
            "id": "0264"
        },
        {
            "name": "太平勤益店",
            "address": "台中市太平區中山路一段324號",
            "lat": 24.143423,
            "lng": 120.734092,
            "id": "0299"
        },
        {
            "name": "台中建成店",
            "address": "台中市東區建成路675號1樓",
            "lat": 24.131289,
            "lng": 120.69003,
            "id": "0314"
        },
        {
            "name": "烏日成功店",
            "address": "台中市烏日區中山路三段500號",
            "lat": 24.1108089,
            "lng": 120.6004726,
            "id": "0320"
        },
        {
            "name": "台中文心店",
            "address": "台中市北屯區文心路四段894.896號1樓",
            "lat": 24.171068,
            "lng": 120.692917,
            "id": "0324"
        },
        {
            "name": "潭子潭興店",
            "address": "台中市潭子區潭興路二段340號",
            "lat": 24.2103013,
            "lng": 120.7101275,
            "id": "0329"
        },
        {
            "name": "台中柳川店",
            "address": "台中市北區五權路329-2號",
            "lat": 24.1522307,
            "lng": 120.6792352,
            "id": "0340"
        },
        {
            "name": "潭子圓通店",
            "address": "台中市潭子區圓通南路258號1.2樓",
            "lat": 24.2072261,
            "lng": 120.7034071,
            "id": "0344"
        },
        {
            "name": "大里永興店",
            "address": "台中市大里區東榮路439號1樓",
            "lat": 24.1096756,
            "lng": 120.6817923,
            "id": "0379"
        },
        {
            "name": "台中福上店",
            "address": "台中市西屯區河南路二段270號",
            "lat": 24.175231,
            "lng": 120.649069,
            "id": "0382"
        },
        {
            "name": "大里光正店",
            "address": "台中市大里區光正路116號1樓",
            "lat": 24.0897759,
            "lng": 120.7140301,
            "id": "0406"
        },
        {
            "name": "太平永成店",
            "address": "台中市太平區永平南路68號1樓",
            "lat": 24.12916,
            "lng": 120.721857,
            "id": "0426"
        },
        {
            "name": "大雅文化店",
            "address": "台中市大雅區文化路1之1號",
            "lat": 24.2404948,
            "lng": 120.627858,
            "id": "0449"
        },
        {
            "name": "台中英才店",
            "address": "台中市北區英才路388\/388-1號",
            "lat": 24.1543059,
            "lng": 120.6678368,
            "id": "0464"
        },
        {
            "name": "台中太平店",
            "address": "台中市太平區太平路227號、永成北路407號1樓",
            "lat": 24.1212212,
            "lng": 120.7198794,
            "id": "0465"
        },
        {
            "name": "大里三興店",
            "address": "台中市大里區國光路2段147\/149號",
            "lat": 24.1026149,
            "lng": 120.681478,
            "id": "0486"
        },
        {
            "name": "神岡中正店",
            "address": "台中市神岡區神岡路122號1樓",
            "lat": 24.2566792,
            "lng": 120.6587155,
            "id": "0493"
        },
        {
            "name": "台中永順店",
            "address": "台中市南屯區黎明路一段812之10號",
            "lat": 24.1316219,
            "lng": 120.6353585,
            "id": "0497"
        },
        {
            "name": "台中家商店",
            "address": "台中市東區復興路四段44\/46號",
            "lat": 24.1348145,
            "lng": 120.6840943,
            "id": "0499"
        },
        {
            "name": "台中梅亭店",
            "address": "台中市北區梅亭街56.58號",
            "lat": 24.1602522,
            "lng": 120.6897285,
            "id": "0533"
        },
        {
            "name": "神崗和睦店",
            "address": "台中市神岡區和睦路462號",
            "lat": 24.2793084,
            "lng": 120.6556215,
            "id": "0534"
        },
        {
            "name": "台中柳陽店",
            "address": "台中市北屯區柳陽東街45-4號",
            "lat": 24.1698357,
            "lng": 120.690262,
            "id": "0539"
        },
        {
            "name": "太平中平店",
            "address": "台中市太平區中平路160號",
            "lat": 24.12576,
            "lng": 120.718111,
            "id": "0540"
        },
        {
            "name": "大里樹王店",
            "address": "台中市大里區樹王里文心南路1345號",
            "lat": 24.102433,
            "lng": 120.6711706,
            "id": "0541"
        },
        {
            "name": "大里東榮店",
            "address": "台中市大里區益民路一段94號",
            "lat": 24.1088084,
            "lng": 120.6937249,
            "id": "0557"
        },
        {
            "name": "台中美德店",
            "address": "台中市北區美德街211號",
            "lat": 24.1581079,
            "lng": 120.6790422,
            "id": "0559"
        },
        {
            "name": "神岡三民店",
            "address": "台中市神岡區三民路495號",
            "lat": 24.2696977,
            "lng": 120.6604914,
            "id": "0564"
        },
        {
            "name": "烏日新興店",
            "address": "台中市烏日區新興路427號",
            "lat": 24.105657,
            "lng": 120.6179592,
            "id": "0575"
        },
        {
            "name": "大雅和平店",
            "address": "台中市大雅區中清路4段892號1樓",
            "lat": 24.2397741,
            "lng": 120.6316101,
            "id": "0577"
        },
        {
            "name": "大里爽文店",
            "address": "台中市大里區爽文路631號",
            "lat": 24.1039681,
            "lng": 120.674564,
            "id": "0578"
        },
        {
            "name": "台中軍和店",
            "address": "台中市北屯區東山路一段238號",
            "lat": 24.1753452,
            "lng": 120.7174742,
            "id": "0635"
        },
        {
            "name": "台中進化店",
            "address": "台中市北區進化路628號1樓.B1",
            "lat": 24.1599671,
            "lng": 120.6945448,
            "id": "0647"
        },
        {
            "name": "台中太原店",
            "address": "台中市西屯區太原路一段63.65號",
            "lat": 24.160378,
            "lng": 120.658988,
            "id": "0659"
        },
        {
            "name": "龍井自強店",
            "address": "台中市大肚區遊園路二段203巷3弄89號",
            "lat": 24.1734834,
            "lng": 120.5796324,
            "id": "0662"
        },
        {
            "name": "神岡民德店",
            "address": "台中市神岡區中山路454號",
            "lat": 24.2471039,
            "lng": 120.6869137,
            "id": "0665"
        },
        {
            "name": "台中富大店",
            "address": "台中市中區中山路276號1樓及柳川東路3段26號1樓",
            "lat": 24.1427645,
            "lng": 120.6776807,
            "id": "0680"
        },
        {
            "name": "台中坪林店",
            "address": "台中市太平區中山路三段2之1號1.2樓",
            "lat": 24.1494445,
            "lng": 120.7222875,
            "id": "0684"
        },
        {
            "name": "台中寶慶店",
            "address": "台中市西屯區寶慶街30巷7號",
            "lat": 24.17169,
            "lng": 120.647968,
            "id": "0694"
        },
        {
            "name": "大里大元店",
            "address": "台中市大里區中興路二段92號1樓",
            "lat": 24.0977449,
            "lng": 120.68724,
            "id": "0695"
        },
        {
            "name": "后里三豐店",
            "address": "台中市后里區三豐路177號1樓",
            "lat": 24.3028902,
            "lng": 120.7222492,
            "id": "0722"
        },
        {
            "name": "龍井新東店",
            "address": "台中市龍井區新興路80號",
            "lat": 24.1817154,
            "lng": 120.5860781,
            "id": "0731"
        },
        {
            "name": "台中松和店",
            "address": "台中市北屯區崇德六路一段101號1樓",
            "lat": 24.1800315,
            "lng": 120.6933783,
            "id": "0739"
        },
        {
            "name": "台中成都店",
            "address": "台中市西屯區成都路227、229號1樓",
            "lat": 24.169663,
            "lng": 120.664769,
            "id": "0743"
        },
        {
            "name": "台中霧峰店",
            "address": "台中市霧峰區四德里四德路575號",
            "lat": 24.0599268,
            "lng": 120.6643791,
            "id": "0746"
        },
        {
            "name": "台中同榮店",
            "address": "台中市北屯區同榮路262號1樓+B1",
            "lat": 24.19661,
            "lng": 120.662439,
            "id": "0749"
        },
        {
            "name": "嶺東門市",
            "address": "台中市南屯區嶺東路一號一樓",
            "lat": 24.1378074,
            "lng": 120.6096728,
            "id": "0762"
        },
        {
            "name": "台中樂業店",
            "address": "台中市東區樂業路286號",
            "lat": 24.1387588,
            "lng": 120.702263,
            "id": "0767"
        },
        {
            "name": "大里修平店",
            "address": "台中市大里區仁化里工業二路102.106號1樓",
            "lat": 24.0956562,
            "lng": 120.7143976,
            "id": "0774"
        },
        {
            "name": "霧峰錦州店",
            "address": "台中市霧峰區錦州路399號1樓",
            "lat": 24.0779312,
            "lng": 120.7086425,
            "id": "0776"
        },
        {
            "name": "潭子卓越店",
            "address": "台中市潭子區中山路一段310、312號",
            "lat": 24.1944265,
            "lng": 120.7025322,
            "id": "0777"
        },
        {
            "name": "成功嶺一門市",
            "address": "台中市烏日區中山路3段502號(台中成功嶺188營站 OK超商)",
            "lat": 24.1108089,
            "lng": 120.6004726,
            "id": "0780"
        },
        {
            "name": "成功嶺二門市",
            "address": "台中市烏日區中山路3段502號(台中成功嶺188營站 OK超商)",
            "lat": 24.1108089,
            "lng": 120.6004726,
            "id": "0781"
        },
        {
            "name": "嶺東寶文門市",
            "address": "台中市南屯中台路7號(寶文校區寶文教學大樓B棟B1F)",
            "lat": 24.1357755,
            "lng": 120.6021356,
            "id": "0786"
        },
        {
            "name": "豐原西勢店",
            "address": "台中市豐原區西勢路198號",
            "lat": 24.2439504,
            "lng": 120.7068599,
            "id": "0787"
        },
        {
            "name": "修平門市",
            "address": "台中市大里區工業路11號B1美食廣場",
            "lat": 24.0953128,
            "lng": 120.7137649,
            "id": "0794"
        },
        {
            "name": "台中漢口店",
            "address": "台中市北區漢口路三段50號1樓.B1",
            "lat": 24.1667138,
            "lng": 120.6674475,
            "id": "0805"
        },
        {
            "name": "霧峰五福店",
            "address": "台中市霧峰區五福里中投東路二段386號1樓",
            "lat": 24.0725482,
            "lng": 120.6630847,
            "id": "0834"
        },
        {
            "name": "台中市府店",
            "address": "台中市中區平等街1號1樓",
            "lat": 24.1394364,
            "lng": 120.6783758,
            "id": "0846"
        },
        {
            "name": "太平興隆店",
            "address": "台中市太平區光興路1428、1430號一樓",
            "lat": 24.118337,
            "lng": 120.733424,
            "id": "0862"
        },
        {
            "name": "太平光興店",
            "address": "台中市太平區光興路720號",
            "lat": 24.1065781,
            "lng": 120.7293657,
            "id": "0869"
        },
        {
            "name": "台中大益店",
            "address": "台中市西區向上南路一段129號一樓",
            "lat": 24.1449017,
            "lng": 120.6559773,
            "id": "0884"
        },
        {
            "name": "沙鹿中棲店",
            "address": "台中市沙鹿區台灣大道7段62號1樓",
            "lat": 24.2215786,
            "lng": 120.5797234,
            "id": "0927"
        },
        {
            "name": "台中登峰店",
            "address": "台中市北區中清路一段690號1樓",
            "lat": 24.1690002,
            "lng": 120.6728491,
            "id": "0938"
        },
        {
            "name": "台中福科店",
            "address": "台中市西屯區福科路338號1樓",
            "lat": 24.183581,
            "lng": 120.621984,
            "id": "0968"
        },
        {
            "name": "梧棲大庄店",
            "address": "台中市梧棲區中央路一段825號1樓",
            "lat": 24.24561,
            "lng": 120.537389,
            "id": "0991"
        },
        {
            "name": "台中和祥店",
            "address": "台中市北屯區東山路1段373之3、375號1樓",
            "lat": 24.1766591,
            "lng": 120.7272125,
            "id": "0997"
        },
        {
            "name": "台中光復店",
            "address": "台中市中區平等街112、114號1樓",
            "lat": 24.1423634,
            "lng": 120.6817399,
            "id": "1005"
        },
        {
            "name": "太平宜昌店",
            "address": "台中市太平區宜昌路126、128、130號1樓",
            "lat": 24.141218,
            "lng": 120.719346,
            "id": "1012"
        },
        {
            "name": "大甲順天店",
            "address": "台中市大甲區新政路43之4號1樓",
            "lat": 24.3483565,
            "lng": 120.6257564,
            "id": "1018"
        },
        {
            "name": "台中樹義店",
            "address": "台中市南區樹義六巷3之2號1樓",
            "lat": 24.1088852,
            "lng": 120.6508767,
            "id": "1024"
        },
        {
            "name": "大甲和平店",
            "address": "台中市大甲區和平路194號1樓",
            "lat": 24.3570465,
            "lng": 120.6226714,
            "id": "1056"
        },
        {
            "name": "台中長安店",
            "address": "台中市西屯區長安路二段120號 \/ 122巷1號",
            "lat": 24.1740658,
            "lng": 120.6656975,
            "id": "1070"
        },
        {
            "name": "台中中正門市",
            "address": "台中市北區崇德路一段50號家屬休息室1樓",
            "lat": 24.1560113,
            "lng": 120.6853257,
            "id": "1123"
        },
        {
            "name": "靜宜蓋夏門市",
            "address": "台中市沙鹿區台灣大道7段200號(蓋夏圖書館B1大樓)",
            "lat": 24.2263848,
            "lng": 120.5797081,
            "id": "1136"
        },
        {
            "name": "台鐵沙鹿門市",
            "address": "台中市沙鹿區中正街94號2樓",
            "lat": 24.237043,
            "lng": 120.5576859,
            "id": "1138"
        },
        {
            "name": "台中華美店",
            "address": "台中市西區華美街237號1樓",
            "lat": 24.148372,
            "lng": 120.658616,
            "id": "1153"
        },
        {
            "name": "新社龍翔門市",
            "address": "台中市新社區興社街二段32-5號一樓",
            "lat": 24.1957784,
            "lng": 120.8214588,
            "id": "1155"
        },
        {
            "name": "台中梅川店",
            "address": "台中市北屯區梅川東路四段101、102號1樓",
            "lat": 24.1743266,
            "lng": 120.6800891,
            "id": "1160"
        },
        {
            "name": "清泉崗門市",
            "address": "台中市大雅區中清路5段2號1樓",
            "lat": 24.2412481,
            "lng": 120.630063,
            "id": "1165"
        },
        {
            "name": "台中民族店",
            "address": "台中市中區民族路193、195號1樓",
            "lat": 24.1417132,
            "lng": 120.6770739,
            "id": "1175"
        },
        {
            "name": "弘光科大門市",
            "address": "台中市沙鹿區台灣大道六段1018號(綜合教學大樓一樓)",
            "lat": 24.2173159,
            "lng": 120.5808091,
            "id": "1190"
        },
        {
            "name": "台中科大門市",
            "address": "台中市北區三民路三段129號",
            "lat": 24.1500235,
            "lng": 120.6839638,
            "id": "1201"
        }
    ]
}