{
    "city_name": "台南市",
    "stores": [
        {
            "name": "台南官田店",
            "address": "台南市官田區南部村南部32號1樓",
            "lat": 23.214193,
            "lng": 120.30491,
            "id": "0057"
        },
        {
            "name": "奇材門市",
            "address": "台南市善化區木柵港西路13號B1",
            "lat": 23.1067002,
            "lng": 120.259076,
            "id": "0606"
        },
        {
            "name": "南科茂迪門市",
            "address": "台南市新市區大順九路2號5樓",
            "lat": 23.1069823,
            "lng": 120.2836021,
            "id": "0737"
        },
        {
            "name": "台南黎明門市",
            "address": "台南市麻豆區磚井里141號",
            "lat": 23.1652456,
            "lng": 120.2541575,
            "id": "0816"
        },
        {
            "name": "台南新孝店",
            "address": "台南市南區新孝路90號1樓",
            "lat": 22.9779124,
            "lng": 120.1882943,
            "id": "0817"
        },
        {
            "name": "歸仁媽廟店",
            "address": "台南市歸仁區和順路一段1號1樓",
            "lat": 22.9930632,
            "lng": 120.2893081,
            "id": "0818"
        },
        {
            "name": "台南開元店",
            "address": "台南市北區開元路485巷37.39號1樓",
            "lat": 23.011264,
            "lng": 120.2241961,
            "id": "0826"
        },
        {
            "name": "台南仁和店",
            "address": "台南市東區自由路一段322號1+2樓",
            "lat": 22.9677324,
            "lng": 120.2351397,
            "id": "0827"
        },
        {
            "name": "台南家齊門市",
            "address": "台南市中西區健康路一段342號1樓",
            "lat": 22.981624,
            "lng": 120.200817,
            "id": "1043"
        },
        {
            "name": "康寧門市",
            "address": "台南市安南區安中路五段188號1樓",
            "lat": 23.058852,
            "lng": 120.154343,
            "id": "1102"
        },
        {
            "name": "台鐵善化門市",
            "address": "台南市善化區中山路1號",
            "lat": 23.1333235,
            "lng": 120.3065509,
            "id": "1168"
        },
        {
            "name": "台南高工門市",
            "address": "台南市永康區中山南路193號",
            "lat": 23.0145585,
            "lng": 120.2335483,
            "id": "1178"
        },
        {
            "name": "南科中強門市",
            "address": "台南市新市區南科六路2-1號3樓",
            "lat": 23.1056899,
            "lng": 120.2895059,
            "id": "1186"
        }
    ]
}