{
    "city_name": "台北市",
    "stores": [
        {
            "name": "三民店",
            "address": "台北市松山區三民路113巷1號",
            "lat": 25.0579715,
            "lng": 121.5632423,
            "id": "0001"
        },
        {
            "name": "福林店",
            "address": "台北市士林區中山北路五段702號",
            "lat": 25.0977994,
            "lng": 121.527635,
            "id": "0002"
        },
        {
            "name": "康寧店",
            "address": "台北市內湖區康寧路三段189巷21弄26號",
            "lat": 25.0714016,
            "lng": 121.6123195,
            "id": "0003"
        },
        {
            "name": "港墘店",
            "address": "台北市內湖區港墘路84號",
            "lat": 25.0807547,
            "lng": 121.5774804,
            "id": "0004"
        },
        {
            "name": "台北廈門店",
            "address": "台北市中正區廈門街113巷17號",
            "lat": 25.0234363,
            "lng": 121.5190902,
            "id": "0006"
        },
        {
            "name": "金山南路店",
            "address": "台北市大安區金山南路二段113號",
            "lat": 25.0304379,
            "lng": 121.526805,
            "id": "0014"
        },
        {
            "name": "華山店",
            "address": "台北市中正區紹興北街8-1號",
            "lat": 25.0453246,
            "lng": 121.5252609,
            "id": "0015"
        },
        {
            "name": "汀州路店",
            "address": "台北市中正區汀州路三段109號",
            "lat": 25.016822,
            "lng": 121.52996,
            "id": "0020"
        },
        {
            "name": "松山永春店",
            "address": "台北市信義區信義路六段74號",
            "lat": 25.035146,
            "lng": 121.576865,
            "id": "0021"
        },
        {
            "name": "八德路店",
            "address": "台北市松山區八德路四段38號",
            "lat": 25.0482371,
            "lng": 121.5591882,
            "id": "0023"
        },
        {
            "name": "文山忠順店",
            "address": "台北市文山區興隆路四段68之6號1.2樓",
            "lat": 24.9845671,
            "lng": 121.5614943,
            "id": "0024"
        },
        {
            "name": "北投吉利店",
            "address": "台北市北投區吉利街140號",
            "lat": 25.1185188,
            "lng": 121.5077152,
            "id": "0038"
        },
        {
            "name": "萬大店",
            "address": "台北市萬華區萬大路423巷12號",
            "lat": 25.0212382,
            "lng": 121.4992076,
            "id": "0043"
        },
        {
            "name": "後山埤門市",
            "address": "台北市南港區忠孝東路六段2號",
            "lat": 25.0452586,
            "lng": 121.5829712,
            "id": "0049"
        },
        {
            "name": "大同重北店",
            "address": "台北市大同區重慶北路三段278之2號",
            "lat": 25.0726046,
            "lng": 121.513539,
            "id": "0071"
        },
        {
            "name": "中原店",
            "address": "台北市中山區中原街41號",
            "lat": 25.057044,
            "lng": 121.5289475,
            "id": "0080"
        },
        {
            "name": "內湖康樂店",
            "address": "台北市內湖區康樂街162巷1號",
            "lat": 25.0729987,
            "lng": 121.6193126,
            "id": "0083"
        },
        {
            "name": "延平北路店",
            "address": "台北市大同區延平北路3段115號",
            "lat": 25.0682635,
            "lng": 121.510947,
            "id": "0086"
        },
        {
            "name": "虎林店",
            "address": "台北市信義區虎林街72號",
            "lat": 25.0441404,
            "lng": 121.5770359,
            "id": "0088"
        },
        {
            "name": "中坡店",
            "address": "台北市信義區中坡南路158號",
            "lat": 25.0398138,
            "lng": 121.5843242,
            "id": "0106"
        },
        {
            "name": "亞都店",
            "address": "台北市中山區民權東路二段71巷7號",
            "lat": 25.0631561,
            "lng": 121.5317477,
            "id": "0110"
        },
        {
            "name": "興隆店",
            "address": "台北市文山區興隆路一段138號",
            "lat": 25.0019978,
            "lng": 121.5417922,
            "id": "0112"
        },
        {
            "name": "內湖明湖店",
            "address": "台北市內湖區東湖路43巷26弄1號",
            "lat": 25.0699338,
            "lng": 121.613654,
            "id": "0121"
        },
        {
            "name": "北投中央店",
            "address": "台北市北投區中央北路一段206\/208號",
            "lat": 25.136053,
            "lng": 121.497523,
            "id": "0125"
        },
        {
            "name": "新光門市",
            "address": "台北市士林區文昌路95號地下3樓",
            "lat": 25.0977908,
            "lng": 121.5205885,
            "id": "0134"
        },
        {
            "name": "成福店",
            "address": "台北市南港區成福路44號",
            "lat": 25.0449625,
            "lng": 121.5863928,
            "id": "0136"
        },
        {
            "name": "文山景興店",
            "address": "台北市文山區景興路40號",
            "lat": 24.997118,
            "lng": 121.544526,
            "id": "0140"
        },
        {
            "name": "台北新東店",
            "address": "台北市松山區新東街11巷28號",
            "lat": 25.0580581,
            "lng": 121.5649048,
            "id": "0148"
        },
        {
            "name": "致遠店",
            "address": "台北市北投區致遠一路一段44號",
            "lat": 25.108539,
            "lng": 121.5164771,
            "id": "0151"
        },
        {
            "name": "中崙店",
            "address": "台北市松山區八德路三段12巷5弄48號",
            "lat": 25.047488,
            "lng": 121.5520003,
            "id": "0166"
        },
        {
            "name": "北醫店",
            "address": "台北市信義區吳興街220巷33號",
            "lat": 25.027229,
            "lng": 121.562267,
            "id": "0181"
        },
        {
            "name": "台北豐達店",
            "address": "台北市松山區敦化北路155巷87號之1",
            "lat": 25.0542195,
            "lng": 121.5513375,
            "id": "0189"
        },
        {
            "name": "士林克強店",
            "address": "台北市士林區中山北路六段193號",
            "lat": 25.1078503,
            "lng": 121.524936,
            "id": "0220"
        },
        {
            "name": "北安店",
            "address": "台北市中山區北安路476號",
            "lat": 25.079609,
            "lng": 121.545121,
            "id": "0225"
        },
        {
            "name": "士林士商店",
            "address": "台北市士林區士商路51號1樓",
            "lat": 25.0909036,
            "lng": 121.5203088,
            "id": "0233"
        },
        {
            "name": "南港成德店",
            "address": "台北市南港區成福路212號",
            "lat": 25.0398523,
            "lng": 121.5890905,
            "id": "0249"
        },
        {
            "name": "內湖碧山店",
            "address": "台北市內湖區內湖路三段91號",
            "lat": 25.086289,
            "lng": 121.591106,
            "id": "0255"
        },
        {
            "name": "木柵保儀店",
            "address": "台北市文山區保儀路100號",
            "lat": 24.9867229,
            "lng": 121.568111,
            "id": "0257"
        },
        {
            "name": "台北酒泉店",
            "address": "台北市大同區酒泉街225\/227號",
            "lat": 25.0722274,
            "lng": 121.511307,
            "id": "0263"
        },
        {
            "name": "北投唭哩岸店",
            "address": "台北市北投區立農街一段277號1樓",
            "lat": 25.119416,
            "lng": 121.505809,
            "id": "0278"
        },
        {
            "name": "台北銘德店",
            "address": "台北市萬華區萬大路424巷112之4、之5號1樓",
            "lat": 25.021176,
            "lng": 121.495167,
            "id": "0287"
        },
        {
            "name": "內湖德明門市",
            "address": "台北市內湖區環山路一段56號(德明財經)",
            "lat": 25.0864973,
            "lng": 121.5655655,
            "id": "0303"
        },
        {
            "name": "台北萬美店",
            "address": "台北市文山區辛亥路四段99號",
            "lat": 25.006712,
            "lng": 121.558718,
            "id": "0305"
        },
        {
            "name": "北投泉源店",
            "address": "台北市北投區泉源路35巷1號",
            "lat": 25.140505,
            "lng": 121.506215,
            "id": "0312"
        },
        {
            "name": "北投吉運店",
            "address": "台北市北投區石牌路一段39巷124號1樓",
            "lat": 25.1171688,
            "lng": 121.5098042,
            "id": "0326"
        },
        {
            "name": "南港玉成店",
            "address": "台北市南港區玉成街82號",
            "lat": 25.046211,
            "lng": 121.582768,
            "id": "0334"
        },
        {
            "name": "士林通河店",
            "address": "台北市士林區通河街141巷1號",
            "lat": 25.0810554,
            "lng": 121.5208074,
            "id": "0357"
        },
        {
            "name": "北投磺溪店",
            "address": "台北市北投區石牌路二段348巷1號",
            "lat": 25.1229853,
            "lng": 121.5249893,
            "id": "0359"
        },
        {
            "name": "台北劍潭店",
            "address": "台北市士林區承德路四段130號1樓.B1",
            "lat": 25.0839203,
            "lng": 121.5232448,
            "id": "0371"
        },
        {
            "name": "文山萬安店",
            "address": "台北市文山區萬美街一段47號1+2樓",
            "lat": 25.0021102,
            "lng": 121.568831,
            "id": "0374"
        },
        {
            "name": "士林天北店",
            "address": "台北市士林區天母北路12號1樓",
            "lat": 25.1193117,
            "lng": 121.5262236,
            "id": "0377"
        },
        {
            "name": "士林朝陽店",
            "address": "台北市士林區大東路78號1樓",
            "lat": 25.0904543,
            "lng": 121.525966,
            "id": "0386"
        },
        {
            "name": "士林捷運門市",
            "address": "台北市士林區福德路1號",
            "lat": 25.093535,
            "lng": 121.52623,
            "id": "0388"
        },
        {
            "name": "士林芝東店",
            "address": "台北市士林區士東路200巷21號1樓",
            "lat": 25.111804,
            "lng": 121.533768,
            "id": "0389"
        },
        {
            "name": "台北黎忠店",
            "address": "台北市信義區和平東路三段341巷6號1樓",
            "lat": 25.0211545,
            "lng": 121.5569552,
            "id": "0394"
        },
        {
            "name": "文山木新店",
            "address": "台北市文山區木新路二段242號1樓\/B1",
            "lat": 24.983348,
            "lng": 121.5666065,
            "id": "0430"
        },
        {
            "name": "台北同安店",
            "address": "台北市中正區同安街69巷2號",
            "lat": 25.0235947,
            "lng": 121.5214109,
            "id": "0436"
        },
        {
            "name": "內湖葫洲店",
            "address": "台北市內湖區民權東路六段296巷35號1樓+B1",
            "lat": 25.0718951,
            "lng": 121.6064968,
            "id": "0437"
        },
        {
            "name": "內湖成功店",
            "address": "台北市內湖區成功路三段69號1樓",
            "lat": 25.0777903,
            "lng": 121.590121,
            "id": "0439"
        },
        {
            "name": "台北景聯店",
            "address": "台北市信義區吳興街110號1樓",
            "lat": 25.0266557,
            "lng": 121.5638795,
            "id": "0440"
        },
        {
            "name": "北投石牌店",
            "address": "台北市北投區石牌路一段166巷97號1樓",
            "lat": 25.1122899,
            "lng": 121.5152039,
            "id": "0458"
        },
        {
            "name": "台北吉林店",
            "address": "台北市中山區吉林路163號1樓",
            "lat": 25.0590444,
            "lng": 121.5303686,
            "id": "0461"
        },
        {
            "name": "北投西安店",
            "address": "台北市北投區致遠二路123號",
            "lat": 25.1170316,
            "lng": 121.512289,
            "id": "0474"
        },
        {
            "name": "台北仁愛門市",
            "address": "台北市大安區仁愛路四段10號B1",
            "lat": 25.037512,
            "lng": 121.545224,
            "id": "0500"
        },
        {
            "name": "信義北城店",
            "address": "台北市信義區莊敬路393號",
            "lat": 25.0275359,
            "lng": 121.565695,
            "id": "0504"
        },
        {
            "name": "內湖新明店",
            "address": "台北市內湖區新明路316號",
            "lat": 25.0554986,
            "lng": 121.5817851,
            "id": "0509"
        },
        {
            "name": "內湖金龍店",
            "address": "台北市內湖區內湖路三段60巷10弄1號1樓及地下一樓",
            "lat": 25.0879387,
            "lng": 121.5921628,
            "id": "0530"
        },
        {
            "name": "台北樂安店",
            "address": "台北市大安區樂業街96號1樓",
            "lat": 25.0213307,
            "lng": 121.5513207,
            "id": "0565"
        },
        {
            "name": "南港中研店",
            "address": "台北市南港區研究院路二段230號",
            "lat": 25.0361892,
            "lng": 121.6170517,
            "id": "0589"
        },
        {
            "name": "文山新光店",
            "address": "台北市文山區新光路1段97、99號1樓",
            "lat": 24.99093,
            "lng": 121.573823,
            "id": "0603"
        },
        {
            "name": "台北金華店",
            "address": "台北市大安區金華街241-1號",
            "lat": 25.0298399,
            "lng": 121.530477,
            "id": "0615"
        },
        {
            "name": "大同樹德店",
            "address": "台北市大同區民族西路120、122號1樓",
            "lat": 25.0684617,
            "lng": 121.5168259,
            "id": "0646"
        },
        {
            "name": "中正三元店",
            "address": "台北市中正區和平西路二段70巷15弄3號",
            "lat": 25.0282005,
            "lng": 121.5114015,
            "id": "0653"
        },
        {
            "name": "台北鑫吉原店",
            "address": "台北市中山區中原街8號",
            "lat": 25.0561846,
            "lng": 121.528792,
            "id": "0691"
        },
        {
            "name": "信義崇安店",
            "address": "台北市信義區信安街149號1樓",
            "lat": 25.0229689,
            "lng": 121.555534,
            "id": "0711"
        },
        {
            "name": "文山再興店",
            "address": "台北市文山區興隆路四段55號1樓",
            "lat": 24.989673,
            "lng": 121.55987,
            "id": "0718"
        },
        {
            "name": "士林天玉店",
            "address": "台北市士林區天母北路89號1樓",
            "lat": 25.1228327,
            "lng": 121.5267962,
            "id": "0756"
        },
        {
            "name": "文山極美店",
            "address": "台北市文山區木柵路一段281、283號",
            "lat": 24.9881863,
            "lng": 121.553662,
            "id": "0766"
        },
        {
            "name": "大同圓環店",
            "address": "台北市大同區南京西路258號",
            "lat": 25.0536413,
            "lng": 121.5152652,
            "id": "0783"
        },
        {
            "name": "士林海光店",
            "address": "台北市士林區延平北路五段177號1樓",
            "lat": 25.0830684,
            "lng": 121.5100039,
            "id": "0796"
        },
        {
            "name": "文山久康店",
            "address": "台北市文山區久康街1號",
            "lat": 24.98868,
            "lng": 121.564397,
            "id": "0798"
        },
        {
            "name": "台北撫順店",
            "address": "台北市中山區撫順街21號",
            "lat": 25.0636411,
            "lng": 121.5205996,
            "id": "0821"
        },
        {
            "name": "來來文大門市",
            "address": "台北市大安區和平東路二段49-1號1樓",
            "lat": 25.0258166,
            "lng": 121.5382653,
            "id": "0832"
        },
        {
            "name": "木柵博嘉店",
            "address": "台北市文山區木柵路四段66號1樓",
            "lat": 24.997664,
            "lng": 121.574269,
            "id": "0836"
        },
        {
            "name": "台北三興店",
            "address": "台北市信義區基隆路二段39巷3號1樓",
            "lat": 25.0312354,
            "lng": 121.5590385,
            "id": "0842"
        },
        {
            "name": "台北朱崙店",
            "address": "台北市中山區龍江路47號",
            "lat": 25.0492,
            "lng": 121.5404424,
            "id": "0856"
        },
        {
            "name": "台北撫遠店",
            "address": "台北市松山區撫遠街382號1樓",
            "lat": 25.0644396,
            "lng": 121.5655526,
            "id": "0859"
        },
        {
            "name": "北投復興店",
            "address": "台北市北投區復興四路23號1樓+地下室",
            "lat": 25.142146,
            "lng": 121.499944,
            "id": "0873"
        },
        {
            "name": "台北福和店",
            "address": "台北市中正區羅斯福路三段244巷7-1號",
            "lat": 25.016894,
            "lng": 121.530768,
            "id": "0907"
        },
        {
            "name": "北投尊賢店",
            "address": "台北市北投區尊賢街221號",
            "lat": 25.1156349,
            "lng": 121.5077019,
            "id": "0940"
        },
        {
            "name": "士林和豐店",
            "address": "台北市士林區和豐街39巷2號",
            "lat": 25.082488,
            "lng": 121.5178146,
            "id": "0954"
        },
        {
            "name": "台北錦三店",
            "address": "台北市松山區三民路137號",
            "lat": 25.0603459,
            "lng": 121.5631046,
            "id": "0970"
        },
        {
            "name": "松山光復店",
            "address": "台北市松山區光復北路32號1樓",
            "lat": 25.0493307,
            "lng": 121.5576199,
            "id": "0972"
        },
        {
            "name": "台北南港店",
            "address": "台北市南港區舊莊街一段159號1樓",
            "lat": 25.0396313,
            "lng": 121.6209414,
            "id": "0982"
        },
        {
            "name": "信義雙和店",
            "address": "台北市信義區吳興街284巷21弄2號",
            "lat": 25.0233869,
            "lng": 121.563379,
            "id": "1003"
        },
        {
            "name": "大同民族店",
            "address": "台北市大同區民族西路223之17號1樓",
            "lat": 25.068784,
            "lng": 121.5124789,
            "id": "1026"
        },
        {
            "name": "關渡水鳥店",
            "address": "台北市北投區知行路1號1+2樓",
            "lat": 25.1180269,
            "lng": 121.465318,
            "id": "1031"
        },
        {
            "name": "北投會館門市",
            "address": "台北市北投區大業路527巷88號B1",
            "lat": 25.1357899,
            "lng": 121.483955,
            "id": "1065"
        },
        {
            "name": "天母公園店",
            "address": "台北市士林區中山北路七段81巷8號1樓",
            "lat": 25.1218616,
            "lng": 121.5306616,
            "id": "1067"
        },
        {
            "name": "石牌榮總店",
            "address": "台北市北投區石牌路二段313號1樓",
            "lat": 25.12173,
            "lng": 121.523168,
            "id": "1069"
        },
        {
            "name": "北藝大門市",
            "address": "台北市北投區學園路1號",
            "lat": 25.1324572,
            "lng": 121.4693489,
            "id": "1071"
        },
        {
            "name": "木柵軍功店",
            "address": "台北市文山區和平東路4段383號1樓",
            "lat": 24.9990698,
            "lng": 121.5741394,
            "id": "1074"
        },
        {
            "name": "士林福佳店",
            "address": "台北市士林區中正路422號1樓",
            "lat": 25.093394,
            "lng": 121.519544,
            "id": "1110"
        },
        {
            "name": "台北富陽店",
            "address": "台北市信義區富陽街65、67號1樓",
            "lat": 25.021922,
            "lng": 121.5565272,
            "id": "1121"
        },
        {
            "name": "台北林森店",
            "address": "台北市中山區林森北路360\/362號1樓",
            "lat": 25.0572909,
            "lng": 121.5253788,
            "id": "1129"
        },
        {
            "name": "台北萬德店",
            "address": "台北市萬華區萬大路279、281號1樓",
            "lat": 25.0253374,
            "lng": 121.5006227,
            "id": "1143"
        },
        {
            "name": "士林科教館門市",
            "address": "台北市士林區士商路189號1樓",
            "lat": 25.0961275,
            "lng": 121.5166874,
            "id": "1157"
        },
        {
            "name": "台北開封店",
            "address": "台北市萬華區開封街二段80、80之1號1樓",
            "lat": 25.047019,
            "lng": 121.504788,
            "id": "1158"
        },
        {
            "name": "台北南京店",
            "address": "台北市中山區南京東路三段86號",
            "lat": 25.0518556,
            "lng": 121.5391218,
            "id": "1191"
        }
    ]
}