{
    "city_name": "桃園市",
    "stores": [
        {
            "name": "大園三和店",
            "address": "桃園市大園區果林里拔子林街9-9號1樓",
            "lat": 25.074078,
            "lng": 121.266496,
            "id": "0013"
        },
        {
            "name": "中壢信義店",
            "address": "桃園市中壢區中北路二段400號",
            "lat": 24.95388,
            "lng": 121.232235,
            "id": "0022"
        },
        {
            "name": "中壢福州店",
            "address": "桃園市中壢區中北路二段350～354號",
            "lat": 24.9533829,
            "lng": 121.230778,
            "id": "0037"
        },
        {
            "name": "桃園中央店",
            "address": "桃園市桃園區中正路269號",
            "lat": 24.9966489,
            "lng": 121.3096115,
            "id": "0050"
        },
        {
            "name": "平鎮湧光店",
            "address": "桃園市平鎮區湧光路448.450號",
            "lat": 24.8905487,
            "lng": 121.2040708,
            "id": "0058"
        },
        {
            "name": "平鎮南平店",
            "address": "桃園市平鎮區南平路119號",
            "lat": 24.9191649,
            "lng": 121.208057,
            "id": "0072"
        },
        {
            "name": "桃園高城店",
            "address": "桃園市八德區高城路72號",
            "lat": 24.9784945,
            "lng": 121.2759767,
            "id": "0076"
        },
        {
            "name": "員樹林店",
            "address": "桃園市大溪區員林路2段411號1樓",
            "lat": 24.883558,
            "lng": 121.267429,
            "id": "0078"
        },
        {
            "name": "桃園建國店",
            "address": "桃園市桃園區建國路156-9號",
            "lat": 24.9853312,
            "lng": 121.3096644,
            "id": "0084"
        },
        {
            "name": "中壢華勛店",
            "address": "桃園市中壢區華勛街293號1樓",
            "lat": 24.9482889,
            "lng": 121.260565,
            "id": "0089"
        },
        {
            "name": "平鎮德育店",
            "address": "桃園市平鎮區德育路二段165號1樓",
            "lat": 24.941613,
            "lng": 121.219174,
            "id": "0090"
        },
        {
            "name": "中壢仁愛店",
            "address": "桃園市中壢區新中北路840、842號1樓",
            "lat": 24.9565319,
            "lng": 121.251962,
            "id": "0119"
        },
        {
            "name": "中壢中原店",
            "address": "桃園市中壢區中北路191號",
            "lat": 24.9571406,
            "lng": 121.2401605,
            "id": "0120"
        },
        {
            "name": "平鎮崇泰店",
            "address": "桃園市平鎮區延平路三段6-1號1樓",
            "lat": 24.9420429,
            "lng": 121.2058934,
            "id": "0124"
        },
        {
            "name": "中壢復華店",
            "address": "桃園市中壢區復華街50號1樓",
            "lat": 24.9698068,
            "lng": 121.2477663,
            "id": "0131"
        },
        {
            "name": "平鎮忠貞店",
            "address": "桃園市平鎮區龍南路349號",
            "lat": 24.9193004,
            "lng": 121.2539283,
            "id": "0133"
        },
        {
            "name": "中壢興仁店",
            "address": "桃園市中壢區興仁路二段295號、297巷1號1樓",
            "lat": 24.964157,
            "lng": 121.26499,
            "id": "0137"
        },
        {
            "name": "楊梅永美店",
            "address": "桃園市楊梅區永美路163號",
            "lat": 24.9202567,
            "lng": 121.1850657,
            "id": "0139"
        },
        {
            "name": "桃園果林店",
            "address": "桃園市大園區果林里拔子林23-1號",
            "lat": 25.0779661,
            "lng": 121.2575312,
            "id": "0142"
        },
        {
            "name": "大溪光明店",
            "address": "桃園市大溪區員林路二段281號1樓",
            "lat": 24.885595,
            "lng": 121.270003,
            "id": "0145"
        },
        {
            "name": "中壢王子店",
            "address": "桃園市中壢區王子街50號",
            "lat": 24.9612696,
            "lng": 121.214672,
            "id": "0147"
        },
        {
            "name": "中壢永泰店",
            "address": "桃園市中壢區溪州街71號1樓",
            "lat": 24.9470663,
            "lng": 121.2326867,
            "id": "0150"
        },
        {
            "name": "大園長榮門市",
            "address": "桃園市大園區航勤北路8-1號3樓",
            "lat": 25.0924098,
            "lng": 121.2472103,
            "id": "0185"
        },
        {
            "name": "中壢徐州店",
            "address": "桃園市中壢區環中東路二段328號1樓",
            "lat": 24.9481765,
            "lng": 121.2349472,
            "id": "0204"
        },
        {
            "name": "南崁中正店",
            "address": "桃園市蘆竹區中正路203號1樓",
            "lat": 25.0457341,
            "lng": 121.2926909,
            "id": "0207"
        },
        {
            "name": "大溪得勝店",
            "address": "桃園市大溪區得勝路1號",
            "lat": 24.8812046,
            "lng": 121.2878543,
            "id": "0213"
        },
        {
            "name": "龍潭龍元店",
            "address": "桃園市龍潭區龍元路110號",
            "lat": 24.8647791,
            "lng": 121.2113389,
            "id": "0224"
        },
        {
            "name": "大湳和平店",
            "address": "桃園市八德區和平路222號",
            "lat": 24.9573359,
            "lng": 121.3042633,
            "id": "0243"
        },
        {
            "name": "大溪中華店",
            "address": "桃園市大溪區信義路158號",
            "lat": 24.8852594,
            "lng": 121.2930367,
            "id": "0252"
        },
        {
            "name": "八德忠勇店",
            "address": "桃園市八德區介壽路一段401.403.405號1樓",
            "lat": 24.9704712,
            "lng": 121.3017099,
            "id": "0276"
        },
        {
            "name": "中壢高商門市",
            "address": "桃園市中壢區中央西路二段141巷100號2、3樓",
            "lat": 24.9621138,
            "lng": 121.2145186,
            "id": "0281"
        },
        {
            "name": "觀音中正店",
            "address": "桃園市觀音區中正路143號1+2樓",
            "lat": 25.0331853,
            "lng": 121.0828966,
            "id": "0285"
        },
        {
            "name": "桃園角板山店",
            "address": "桃園市復興區中正路93、95號1樓",
            "lat": 24.8178697,
            "lng": 121.3510816,
            "id": "0330"
        },
        {
            "name": "龜山憲校門市",
            "address": "桃園市龜山區復興街301號之1",
            "lat": 25.0603659,
            "lng": 121.3582439,
            "id": "0335"
        },
        {
            "name": "中壢榮學店",
            "address": "桃園市中壢區榮民南路186號1樓、2樓",
            "lat": 24.9534225,
            "lng": 121.2567623,
            "id": "0336"
        },
        {
            "name": "大湳大安店",
            "address": "桃園市八德區和平路530\/532號",
            "lat": 24.9570623,
            "lng": 121.3134833,
            "id": "0338"
        },
        {
            "name": "大園忠泰店",
            "address": "桃園市大園區三民路二段16-5、16-6號1樓",
            "lat": 25.0882705,
            "lng": 121.2531199,
            "id": "0339"
        },
        {
            "name": "成功工商門市",
            "address": "桃園市龜山區新興里明德路162巷100號",
            "lat": 24.9870619,
            "lng": 121.3473302,
            "id": "0343"
        },
        {
            "name": "桃園大有店",
            "address": "桃園市桃園區大有路658號",
            "lat": 25.0164848,
            "lng": 121.3166115,
            "id": "0345"
        },
        {
            "name": "桃園民族店",
            "address": "桃園市桃園區民族路204號",
            "lat": 24.995066,
            "lng": 121.307677,
            "id": "0347"
        },
        {
            "name": "龜山大同店",
            "address": "桃園市龜山區大同路329號",
            "lat": 24.988758,
            "lng": 121.3468333,
            "id": "0348"
        },
        {
            "name": "八德瑞豐店",
            "address": "桃園市八德區介壽路二段935號",
            "lat": 24.9351629,
            "lng": 121.297593,
            "id": "0355"
        },
        {
            "name": "平鎮平東店",
            "address": "桃園市平鎮區平東路31-1號",
            "lat": 24.9180329,
            "lng": 121.253031,
            "id": "0360"
        },
        {
            "name": "大湳大忠店",
            "address": "桃園市八德區和平路55號",
            "lat": 24.9578563,
            "lng": 121.3004608,
            "id": "0362"
        },
        {
            "name": "中壢百齡店",
            "address": "桃園市中壢區龍門街137號1樓",
            "lat": 24.929472,
            "lng": 121.245013,
            "id": "0372"
        },
        {
            "name": "楊梅埔心店",
            "address": "桃園市楊梅區永美路329號",
            "lat": 24.9172189,
            "lng": 121.1820856,
            "id": "0373"
        },
        {
            "name": "中壢南亞店",
            "address": "桃園市中壢區中山東路三段文化新村9號",
            "lat": 24.94637,
            "lng": 121.246856,
            "id": "0391"
        },
        {
            "name": "桃園正康店",
            "address": "桃園市桃園區正康二街83號",
            "lat": 25.0011182,
            "lng": 121.3087773,
            "id": "0397"
        },
        {
            "name": "壽山高中門市",
            "address": "桃園市龜山區大同路23號",
            "lat": 24.9945498,
            "lng": 121.3409719,
            "id": "0402"
        },
        {
            "name": "平鎮育達店",
            "address": "桃園市平鎮區育達路87號",
            "lat": 24.9514059,
            "lng": 121.2112051,
            "id": "0403"
        },
        {
            "name": "八德大宏店",
            "address": "桃園市八德區桃德路125\/123號1樓",
            "lat": 24.968152,
            "lng": 121.2945494,
            "id": "0416"
        },
        {
            "name": "楊梅裕成店",
            "address": "桃園市楊梅區裕成路160-1號1樓",
            "lat": 24.8986794,
            "lng": 121.1610264,
            "id": "0417"
        },
        {
            "name": "八德桃福店",
            "address": "桃園市八德區桃德路388號1樓",
            "lat": 24.9736006,
            "lng": 121.2979204,
            "id": "0435"
        },
        {
            "name": "龜山文明店",
            "address": "桃園市龜山區文明路71-2號",
            "lat": 25.0546356,
            "lng": 121.3797075,
            "id": "0492"
        },
        {
            "name": "平鎮山峰店",
            "address": "桃園市平鎮區中豐路山頂段373號",
            "lat": 24.8961914,
            "lng": 121.2114115,
            "id": "0498"
        },
        {
            "name": "平鎮新榮店",
            "address": "桃園市平鎮區延平路一段199\/201號",
            "lat": 24.9504705,
            "lng": 121.2162022,
            "id": "0507"
        },
        {
            "name": "八德興豐店",
            "address": "桃園市八德區興豐路570號1樓",
            "lat": 24.930438,
            "lng": 121.293093,
            "id": "0515"
        },
        {
            "name": "桃園武陵店",
            "address": "桃園市桃園區中山路992\/994號",
            "lat": 24.9888387,
            "lng": 121.2857431,
            "id": "0516"
        },
        {
            "name": "龍潭北龍店",
            "address": "桃園市龍潭區北龍路58號",
            "lat": 24.865265,
            "lng": 121.212376,
            "id": "0517"
        },
        {
            "name": "中壢育樂店",
            "address": "桃園市中壢區中正路257號、康樂路85號1樓",
            "lat": 24.9552901,
            "lng": 121.2198273,
            "id": "0518"
        },
        {
            "name": "龍潭佳安店",
            "address": "桃園市龍潭區中正路佳安段2巷215號1樓",
            "lat": 24.8490407,
            "lng": 121.2423913,
            "id": "0542"
        },
        {
            "name": "楊梅中華店",
            "address": "桃園市楊梅區秀才路552、554號一樓",
            "lat": 24.8941538,
            "lng": 121.1371422,
            "id": "0556"
        },
        {
            "name": "龍潭中央店",
            "address": "桃園市龍潭區中央街138+140號1樓",
            "lat": 24.8832014,
            "lng": 121.204836,
            "id": "0560"
        },
        {
            "name": "桃園博愛店",
            "address": "桃園市桃園區博愛路97.99號",
            "lat": 24.9946684,
            "lng": 121.30963,
            "id": "0562"
        },
        {
            "name": "龍潭民富店",
            "address": "桃園市龍潭區民生路11+13號1樓",
            "lat": 24.848569,
            "lng": 121.2301806,
            "id": "0566"
        },
        {
            "name": "中壢龍昌店",
            "address": "桃園市中壢區龍昌路302號",
            "lat": 24.9347876,
            "lng": 121.249247,
            "id": "0567"
        },
        {
            "name": "大溪員林店",
            "address": "桃園市大溪區員林路二段414號",
            "lat": 24.883647,
            "lng": 121.267204,
            "id": "0569"
        },
        {
            "name": "中壢清雲店",
            "address": "桃園市中壢區健行路99號",
            "lat": 24.950213,
            "lng": 121.22737,
            "id": "0573"
        },
        {
            "name": "桃園埔子店",
            "address": "桃園市桃園區永安路754號",
            "lat": 25.006075,
            "lng": 121.29503,
            "id": "0579"
        },
        {
            "name": "龜山楓樹坑店",
            "address": "桃園市龜山區忠義路一段202號1樓",
            "lat": 25.0067964,
            "lng": 121.3447764,
            "id": "0586"
        },
        {
            "name": "中壢長華店",
            "address": "桃園市中壢區復華九街71號1樓",
            "lat": 24.9754257,
            "lng": 121.2481358,
            "id": "0587"
        },
        {
            "name": "桃園法治店",
            "address": "桃園市桃園區法治路2.4號",
            "lat": 24.99261,
            "lng": 121.29648,
            "id": "0595"
        },
        {
            "name": "桃園南華店",
            "address": "桃園市桃園區南華街67號1樓",
            "lat": 24.9908095,
            "lng": 121.3081375,
            "id": "0597"
        },
        {
            "name": "龜山明基門市",
            "address": "桃園市龜山區建國東路29號2樓",
            "lat": 24.9878087,
            "lng": 121.3223356,
            "id": "0598"
        },
        {
            "name": "桃園同德店",
            "address": "桃園市桃園區同安街340、342號1樓、338巷1號1樓",
            "lat": 25.0170429,
            "lng": 121.302735,
            "id": "0600"
        },
        {
            "name": "新屋東明店",
            "address": "桃園市新屋區中山西路一段572號1樓",
            "lat": 24.976645,
            "lng": 121.082892,
            "id": "0609"
        },
        {
            "name": "中壢龍川店",
            "address": "桃園市中壢區龍昌路208號",
            "lat": 24.9371947,
            "lng": 121.249379,
            "id": "0611"
        },
        {
            "name": "中壢利民店",
            "address": "桃園市中壢區利民路1號",
            "lat": 24.9522781,
            "lng": 121.2375121,
            "id": "0613"
        },
        {
            "name": "觀音忠孝店",
            "address": "桃園市觀音區大觀路2段2號",
            "lat": 25.0484247,
            "lng": 121.1438863,
            "id": "0618"
        },
        {
            "name": "平鎮龍恩店",
            "address": "桃園市平鎮區游泳路120巷1弄2、4號1樓",
            "lat": 24.9285568,
            "lng": 121.2323964,
            "id": "0619"
        },
        {
            "name": "桃園民生店",
            "address": "桃園市桃園區民生路621之1號",
            "lat": 25.0064245,
            "lng": 121.3084835,
            "id": "0633"
        },
        {
            "name": "平鎮新埔店",
            "address": "桃園市平鎮區環南路二段280號",
            "lat": 24.939946,
            "lng": 121.214663,
            "id": "0651"
        },
        {
            "name": "中壢永福店",
            "address": "桃園市中壢區永福路1042號",
            "lat": 24.9632233,
            "lng": 121.2531462,
            "id": "0655"
        },
        {
            "name": "中壢吉林店",
            "address": "桃園市中壢區忠孝路479號1樓",
            "lat": 24.9825041,
            "lng": 121.2528083,
            "id": "0660"
        },
        {
            "name": "龜山山鶯店",
            "address": "桃園市龜山區山鶯路200號",
            "lat": 24.986777,
            "lng": 121.326207,
            "id": "0678"
        },
        {
            "name": "世界先進門市",
            "address": "桃園市蘆竹區長榮路168號4樓",
            "lat": 25.055956,
            "lng": 121.2865738,
            "id": "0685"
        },
        {
            "name": "桃園廈門店",
            "address": "桃園市桃園區中山路676號1樓",
            "lat": 24.991163,
            "lng": 121.294869,
            "id": "0701"
        },
        {
            "name": "楊梅新農店",
            "address": "桃園市楊梅區新農街377號1-3樓",
            "lat": 24.911882,
            "lng": 121.1570546,
            "id": "0717"
        },
        {
            "name": "中壢中央店",
            "address": "桃園市中壢區中央西路二段148號1樓",
            "lat": 24.959328,
            "lng": 121.214126,
            "id": "0721"
        },
        {
            "name": "中壢金峰店",
            "address": "桃園市中壢區中山東路三段2號",
            "lat": 24.9379769,
            "lng": 121.253789,
            "id": "0728"
        },
        {
            "name": "平鎮環南店",
            "address": "桃園市平鎮區龍南路20、22、24號1樓",
            "lat": 24.9243418,
            "lng": 121.2457281,
            "id": "0732"
        },
        {
            "name": "中壢雙連店",
            "address": "桃園市中壢區五權里五興路402號1樓",
            "lat": 24.965236,
            "lng": 121.193929,
            "id": "0733"
        },
        {
            "name": "龍潭南華店",
            "address": "桃園市龍潭區中正路73號1樓",
            "lat": 24.868678,
            "lng": 121.215207,
            "id": "0760"
        },
        {
            "name": "平鎮壢新店",
            "address": "桃園市平鎮區復旦路二段23巷1號",
            "lat": 24.947702,
            "lng": 121.205707,
            "id": "0761"
        },
        {
            "name": "平鎮和平店",
            "address": "桃園市平鎮區和平路117號1樓",
            "lat": 24.9474673,
            "lng": 121.2208434,
            "id": "0789"
        },
        {
            "name": "楊梅比佛利店",
            "address": "桃園市楊梅區青山二街407號1樓+B1樓",
            "lat": 24.9201826,
            "lng": 121.1711337,
            "id": "0792"
        },
        {
            "name": "龜山萬壽店",
            "address": "桃園市龜山區萬壽路二段680之2號1樓",
            "lat": 24.9986998,
            "lng": 121.3450679,
            "id": "0793"
        },
        {
            "name": "觀音綠能門市",
            "address": "桃園市觀音區觀音工業區大同一路19號之2  B1樓",
            "lat": 25.050373,
            "lng": 121.1361,
            "id": "0799"
        },
        {
            "name": "桃園中華店",
            "address": "桃園市桃園區中華路166號",
            "lat": 24.9899239,
            "lng": 121.307049,
            "id": "0808"
        },
        {
            "name": "中壢文化店",
            "address": "桃園市中壢區文化路336號1樓",
            "lat": 24.9785519,
            "lng": 121.251263,
            "id": "0819"
        },
        {
            "name": "觀音信義店",
            "address": "桃園市觀音區信義路77號1樓",
            "lat": 25.036033,
            "lng": 121.079362,
            "id": "0825"
        },
        {
            "name": "平鎮貿西店",
            "address": "桃園市平鎮區中正五路162號1樓",
            "lat": 24.9295726,
            "lng": 121.2553376,
            "id": "0837"
        },
        {
            "name": "龜山忠義店",
            "address": "桃園市龜山區忠義路三段1-1號1樓",
            "lat": 25.0641646,
            "lng": 121.348057,
            "id": "0855"
        },
        {
            "name": "佳世達門市",
            "address": "桃園市龜山區山鶯路157號2樓",
            "lat": 24.988024,
            "lng": 121.326219,
            "id": "0867"
        },
        {
            "name": "中壢仁勛店",
            "address": "桃園市中壢區華勛街349+351號1樓",
            "lat": 24.9466699,
            "lng": 121.2602301,
            "id": "0870"
        },
        {
            "name": "平鎮振金店",
            "address": "桃園市平鎮區金陵路2段24、26號1樓",
            "lat": 24.9424342,
            "lng": 121.2227156,
            "id": "0878"
        },
        {
            "name": "中壢榮安店",
            "address": "桃園市中壢區環中東路50號",
            "lat": 24.9508318,
            "lng": 121.2392568,
            "id": "0882"
        },
        {
            "name": "中壢龍和店",
            "address": "桃園市中壢區龍昌路258號+B1",
            "lat": 24.9358168,
            "lng": 121.2493919,
            "id": "0883"
        },
        {
            "name": "大園三民店",
            "address": "桃園市大園區三民路2段95、97號1樓",
            "lat": 25.086598,
            "lng": 121.2547265,
            "id": "0887"
        },
        {
            "name": "平鎮華光店",
            "address": "桃園市平鎮區金陵路三段249號1樓",
            "lat": 24.924286,
            "lng": 121.228149,
            "id": "0918"
        },
        {
            "name": "蘆竹山林店",
            "address": "桃園市蘆竹區山林路二段391／393／395號",
            "lat": 25.0836179,
            "lng": 121.303518,
            "id": "0932"
        },
        {
            "name": "台表科門市",
            "address": "桃園市桃園區桃鶯路437號B1",
            "lat": 24.9797262,
            "lng": 121.3217234,
            "id": "0948"
        },
        {
            "name": "觀音草漯店",
            "address": "桃園市觀音區大觀路二段161號1樓",
            "lat": 25.0459727,
            "lng": 121.1413101,
            "id": "0950"
        },
        {
            "name": "桃園中埔店",
            "address": "桃園市桃園區中埔二街155號1+2樓",
            "lat": 25.0127929,
            "lng": 121.2955345,
            "id": "0953"
        },
        {
            "name": "中壢精忠店",
            "address": "桃園市中壢區莊敬路779號",
            "lat": 24.9650658,
            "lng": 121.2559352,
            "id": "0956"
        },
        {
            "name": "大溪康莊店",
            "address": "桃園市大溪區康莊路30號",
            "lat": 24.883926,
            "lng": 121.2887505,
            "id": "0964"
        },
        {
            "name": "八德長和店",
            "address": "桃園市八德區和平路670號1樓",
            "lat": 24.9564524,
            "lng": 121.3164159,
            "id": "0975"
        },
        {
            "name": "桃園埔新店",
            "address": "桃園市桃園區力行路40號1樓",
            "lat": 25.0029663,
            "lng": 121.3041684,
            "id": "0976"
        },
        {
            "name": "桃園龍祥店",
            "address": "桃園市桃園區龍祥街48號1樓",
            "lat": 24.9809612,
            "lng": 121.2715922,
            "id": "0993"
        },
        {
            "name": "大園遠雄門市",
            "address": "桃園市大園區航翔路101號1樓",
            "lat": 25.097108,
            "lng": 121.2549236,
            "id": "1006"
        },
        {
            "name": "大園尖山店",
            "address": "桃園市大園區中山南路一段82、84號1樓",
            "lat": 25.0505382,
            "lng": 121.2093556,
            "id": "1015"
        },
        {
            "name": "蘆竹南竹店",
            "address": "桃園市蘆竹區南竹路五段155號1樓",
            "lat": 25.026024,
            "lng": 121.261708,
            "id": "1029"
        },
        {
            "name": "平鎮東安店",
            "address": "桃園市平鎮區平東路138號1樓",
            "lat": 24.917139,
            "lng": 121.250337,
            "id": "1033"
        },
        {
            "name": "龜山貿商店",
            "address": "桃園市龜山區中興路166-5號1樓",
            "lat": 24.9894138,
            "lng": 121.3326319,
            "id": "1046"
        },
        {
            "name": "晶技門市",
            "address": "桃園市平鎮區平鎮工業區工業六路4號B1樓",
            "lat": 24.8972725,
            "lng": 121.1993034,
            "id": "1060"
        },
        {
            "name": "龍潭武漢店",
            "address": "桃園市龍潭區中興路390號1樓",
            "lat": 24.8731167,
            "lng": 121.230982,
            "id": "1062"
        },
        {
            "name": "技嘉門市",
            "address": "桃園市平鎮區南平路211號1樓",
            "lat": 24.920246,
            "lng": 121.2055639,
            "id": "1063"
        },
        {
            "name": "蘆竹海山店",
            "address": "桃園市蘆竹區海山路一段232號1樓",
            "lat": 25.0951455,
            "lng": 121.2648899,
            "id": "1075"
        },
        {
            "name": "至善高中門市",
            "address": "桃園市大溪區康莊路645號1樓",
            "lat": 24.8228364,
            "lng": 121.259335,
            "id": "1086"
        },
        {
            "name": "楊梅立同店",
            "address": "桃園市楊梅區自立街301號1樓",
            "lat": 24.9097085,
            "lng": 121.1531798,
            "id": "1091"
        },
        {
            "name": "大園新興店",
            "address": "桃園市大園區和平東路2號1樓",
            "lat": 25.0605295,
            "lng": 121.1993085,
            "id": "1107"
        },
        {
            "name": "中壢月眉店",
            "address": "桃園市中壢區月眉路一段599號1樓",
            "lat": 25.0021102,
            "lng": 121.181451,
            "id": "1109"
        },
        {
            "name": "欣興山鶯門市",
            "address": "桃園市龜山區山鶯路175號1樓(電子廠)",
            "lat": 24.9822935,
            "lng": 121.3299487,
            "id": "1116"
        },
        {
            "name": "龍潭龍華店",
            "address": "桃園市龍潭區龍華路8號1樓、北龍路126巷3號1樓",
            "lat": 24.8664631,
            "lng": 121.2146176,
            "id": "1117"
        },
        {
            "name": "高山頂營區門市",
            "address": "桃園市楊梅區高山里南高山頂10-1號",
            "lat": 24.9243207,
            "lng": 121.1463681,
            "id": "1128"
        },
        {
            "name": "中壢元化店",
            "address": "桃園市中壢區元化路二段31、33號1樓",
            "lat": 24.9623705,
            "lng": 121.2219328,
            "id": "1139"
        },
        {
            "name": "平鎮金陵店",
            "address": "桃園市平鎮區金陵路二段482號1樓",
            "lat": 24.9322779,
            "lng": 121.224584,
            "id": "1141"
        },
        {
            "name": "大溪勝利店",
            "address": "桃園市大溪區康莊路322、324、326號1樓",
            "lat": 24.8229486,
            "lng": 121.2596624,
            "id": "1172"
        },
        {
            "name": "觀音中興店",
            "address": "桃園市觀音區中興路17、19-1號1樓",
            "lat": 25.037613,
            "lng": 121.080537,
            "id": "1177"
        },
        {
            "name": "南崁高中門市",
            "address": "桃園市蘆竹區仁愛路二段１號",
            "lat": 25.053146,
            "lng": 121.301008,
            "id": "1188"
        },
        {
            "name": "大園高中門市",
            "address": "桃園市大園區大成路二段8號1樓(大園國際高中)",
            "lat": 25.0229294,
            "lng": 121.2178816,
            "id": "1189"
        },
        {
            "name": "龍潭民族店",
            "address": "桃園市龍潭區民族路380、382號1樓",
            "lat": 24.8369269,
            "lng": 121.2341209,
            "id": "1192"
        },
        {
            "name": "楊梅瑞興店",
            "address": "桃園市楊梅區梅獅路二段198號1樓、梅獅路二段232巷2號1樓",
            "lat": 24.9055032,
            "lng": 121.1781083,
            "id": "1193"
        },
        {
            "name": "中壢七福店",
            "address": "桃園市中壢區龍東路474、476號1樓",
            "lat": 24.9343982,
            "lng": 121.2566144,
            "id": "1198"
        },
        {
            "name": "永豐高中門市",
            "address": "桃園市八德區永豐路609號",
            "lat": 24.9749709,
            "lng": 121.27013,
            "id": "1200"
        },
        {
            "name": "桃園大有店",
            "address": "桃園市大有路656號1+2樓",
            "lat": 25.016431,
            "lng": 121.316835,
            "id": "1203"
        }
    ]
}