{
    "city_name": "高雄市",
    "stores": [
        {
            "name": "高雄明華店",
            "address": "高雄市鼓山區裕誠路1584\/1586\/1588號",
            "lat": 22.663211,
            "lng": 120.294164,
            "id": "0016"
        },
        {
            "name": "高雄美山店",
            "address": "高雄市鳥松區美山路99號",
            "lat": 22.6460522,
            "lng": 120.388153,
            "id": "0017"
        },
        {
            "name": "高雄澄清店",
            "address": "高雄市三民區澄清路449號1樓",
            "lat": 22.6402184,
            "lng": 120.3451452,
            "id": "0100"
        },
        {
            "name": "高雄輔英店",
            "address": "高雄市大寮區進學路103號1樓",
            "lat": 22.6047283,
            "lng": 120.3934684,
            "id": "0115"
        },
        {
            "name": "高雄工專店",
            "address": "高雄市三民區建工路411號",
            "lat": 22.6520203,
            "lng": 120.3291244,
            "id": "0253"
        },
        {
            "name": "鼓山西藏店",
            "address": "高雄市鼓山區西藏街300號",
            "lat": 22.6548493,
            "lng": 120.2772789,
            "id": "0270"
        },
        {
            "name": "大社翠屏店",
            "address": "高雄市大社區翠屏路84巷4號1樓",
            "lat": 22.728659,
            "lng": 120.352227,
            "id": "0273"
        },
        {
            "name": "高雄大同店",
            "address": "高雄市前金區大同一路202號1樓",
            "lat": 22.6286905,
            "lng": 120.2998017,
            "id": "0300"
        },
        {
            "name": "高雄樹德店",
            "address": "高雄市三民區建興路120號",
            "lat": 22.643291,
            "lng": 120.3274819,
            "id": "0301"
        },
        {
            "name": "鳳山南華店",
            "address": "高雄市鳳山區南華路222號",
            "lat": 22.6035053,
            "lng": 120.3375486,
            "id": "0349"
        },
        {
            "name": "鳳山新城店",
            "address": "高雄市鳳山區四維街140號1樓",
            "lat": 22.62429,
            "lng": 120.3740608,
            "id": "0390"
        },
        {
            "name": "前鎮新衙店",
            "address": "高雄市前鎮區新衙路284之1號",
            "lat": 22.582127,
            "lng": 120.316524,
            "id": "0408"
        },
        {
            "name": "高雄大順店",
            "address": "高雄市三民區大順二路973\/975號",
            "lat": 22.65511,
            "lng": 120.316073,
            "id": "0427"
        },
        {
            "name": "大寮仁德店",
            "address": "高雄市大寮區仁德路118號1樓",
            "lat": 22.5919626,
            "lng": 120.4042701,
            "id": "0455"
        },
        {
            "name": "高雄興中店",
            "address": "高雄市苓雅區民權一路51、51-1號1樓",
            "lat": 22.618629,
            "lng": 120.313582,
            "id": "0483"
        },
        {
            "name": "小港中鋼店",
            "address": "高雄市小港區大業北路146號1樓",
            "lat": 22.5609573,
            "lng": 120.3502159,
            "id": "0489"
        },
        {
            "name": "高雄四維店",
            "address": "高雄市苓雅區四維一路124號",
            "lat": 22.6256549,
            "lng": 120.3287768,
            "id": "0505"
        },
        {
            "name": "旗山旗楠店",
            "address": "高雄市旗山區旗楠三路167-31,32,33號",
            "lat": 22.7737916,
            "lng": 120.4458644,
            "id": "0528"
        },
        {
            "name": "高雄建順店",
            "address": "高雄市三民區建德路51、53號1樓",
            "lat": 22.6481913,
            "lng": 120.3239121,
            "id": "0594"
        },
        {
            "name": "高雄莊敬店",
            "address": "高雄市三民區莊敬路146號",
            "lat": 22.6535318,
            "lng": 120.3216471,
            "id": "0599"
        },
        {
            "name": "高雄廣西店",
            "address": "高雄市前鎮區廣西路55號1樓",
            "lat": 22.615526,
            "lng": 120.321131,
            "id": "0628"
        },
        {
            "name": "高雄大學店",
            "address": "高雄市楠梓區大學南路309號1樓",
            "lat": 22.732346,
            "lng": 120.2903793,
            "id": "0650"
        },
        {
            "name": "大寮陽明店",
            "address": "高雄市大寮區山頂里內厝路281號1樓",
            "lat": 22.6095483,
            "lng": 120.3883618,
            "id": "0656"
        },
        {
            "name": "高雄飛機店",
            "address": "高雄市小港區飛機路523號1樓",
            "lat": 22.5706849,
            "lng": 120.3485624,
            "id": "0657"
        },
        {
            "name": "林園仁愛店",
            "address": "高雄市林園區仁愛路131號、133號1樓",
            "lat": 22.5076785,
            "lng": 120.3922226,
            "id": "0675"
        },
        {
            "name": "高雄土庫店",
            "address": "高雄市楠梓區土庫一路175號1樓",
            "lat": 22.735903,
            "lng": 120.3294644,
            "id": "0688"
        },
        {
            "name": "鳳山瑞隆店",
            "address": "高雄市鳳山區瑞隆東路176號",
            "lat": 22.6063624,
            "lng": 120.3416497,
            "id": "0712"
        },
        {
            "name": "鳳山青年店",
            "address": "高雄市鳳山區青年路一段317號",
            "lat": 22.6259132,
            "lng": 120.3490913,
            "id": "0720"
        },
        {
            "name": "旗山北站店",
            "address": "高雄市旗山區延平一路195號",
            "lat": 22.8958342,
            "lng": 120.484309,
            "id": "0742"
        },
        {
            "name": "高雄重立店",
            "address": "高雄市左營區重立路158號1樓",
            "lat": 22.6748147,
            "lng": 120.3142021,
            "id": "0759"
        },
        {
            "name": "高雄大昌店",
            "address": "高雄市三民區大昌一路188號",
            "lat": 22.6550106,
            "lng": 120.324744,
            "id": "0773"
        },
        {
            "name": "高雄重慶店",
            "address": "高雄市三民區九如二路368號１樓",
            "lat": 22.641482,
            "lng": 120.301715,
            "id": "0815"
        },
        {
            "name": "鳳山長明店",
            "address": "高雄市鳳山區五甲一路116號1樓",
            "lat": 22.620625,
            "lng": 120.3566279,
            "id": "0839"
        },
        {
            "name": "大寮中庄店",
            "address": "高雄市大寮區八德路197、199號1樓",
            "lat": 22.638179,
            "lng": 120.3580898,
            "id": "0849"
        },
        {
            "name": "鼓山青泉店",
            "address": "高雄市鼓山區鼓山三路13-1\/13-2號1樓",
            "lat": 22.6499231,
            "lng": 120.2765227,
            "id": "0854"
        },
        {
            "name": "高雄武昌店",
            "address": "高雄市苓雅區武昌路77.79號",
            "lat": 22.6184248,
            "lng": 120.3346328,
            "id": "0864"
        },
        {
            "name": "鳳山瑞春店",
            "address": "高雄市鳳山區瑞春街46號1樓",
            "lat": 22.5966882,
            "lng": 120.3233866,
            "id": "0874"
        },
        {
            "name": "高雄西子灣店",
            "address": "高雄市鼓山區哨船街41號一樓",
            "lat": 22.618939,
            "lng": 120.268893,
            "id": "0889"
        },
        {
            "name": "恩智浦門市",
            "address": "高雄市楠梓區經五路十號地下一樓",
            "lat": 22.7207479,
            "lng": 120.3022106,
            "id": "0896"
        },
        {
            "name": "高雄桂陽店",
            "address": "高雄市小港區桂陽路2號+地下室",
            "lat": 22.5822338,
            "lng": 120.3515039,
            "id": "0911"
        },
        {
            "name": "橋頭仕隆店",
            "address": "高雄市橋頭區仕隆路161號1+2樓",
            "lat": 22.7529646,
            "lng": 120.3107708,
            "id": "0914"
        },
        {
            "name": "楠梓楠陽店",
            "address": "高雄市楠梓區楠陽路140號",
            "lat": 22.723556,
            "lng": 120.3287309,
            "id": "0957"
        },
        {
            "name": "高雄武廟店",
            "address": "高雄市苓雅區武廟路90號1樓+2樓+B1",
            "lat": 22.6306449,
            "lng": 120.3305382,
            "id": "0998"
        },
        {
            "name": "高雄崇德店",
            "address": "高雄市左營區崇德路117號1樓",
            "lat": 22.6741381,
            "lng": 120.3063271,
            "id": "1023"
        },
        {
            "name": "台鐵楠梓門市",
            "address": "高雄市楠梓區建楠路229號1樓",
            "lat": 22.7270184,
            "lng": 120.3243789,
            "id": "1068"
        },
        {
            "name": "高師大和平門市",
            "address": "高雄市苓雅區和平一路116號",
            "lat": 22.6259166,
            "lng": 120.3207609,
            "id": "1100"
        },
        {
            "name": "高師大燕巢門市",
            "address": "高雄市燕巢區深中路62號",
            "lat": 22.7727204,
            "lng": 120.4026495,
            "id": "1101"
        },
        {
            "name": "鳥松松埔店",
            "address": "高雄市鳥松區松埔北巷2-23及2-24號1樓+地下室",
            "lat": 22.6633397,
            "lng": 120.371496,
            "id": "1120"
        },
        {
            "name": "左營紀德門市",
            "address": "高雄市左營區介壽路10號(西碼頭)",
            "lat": 22.6808583,
            "lng": 120.2869906,
            "id": "1122"
        },
        {
            "name": "左營濟陽門市",
            "address": "高雄市左營區介壽路10號(東碼頭)",
            "lat": 22.6808583,
            "lng": 120.2869906,
            "id": "1133"
        },
        {
            "name": "高雄林森店",
            "address": "高雄市新興區八德一路320、322號1樓",
            "lat": 22.6359249,
            "lng": 120.3047579,
            "id": "1137"
        },
        {
            "name": "高雄台船門市",
            "address": "高雄市小港區中鋼路3號",
            "lat": 22.552346,
            "lng": 120.345619,
            "id": "1161"
        },
        {
            "name": "高雄七賢二店",
            "address": "高雄市前金區七賢二路203號",
            "lat": 22.6323978,
            "lng": 120.2938839,
            "id": "1176"
        },
        {
            "name": "高雄美術館店",
            "address": "高雄市鼓山區馬卡道路352號1樓",
            "lat": 22.6633175,
            "lng": 120.2857337,
            "id": "1187"
        },
        {
            "name": "高雄駁二藝術店",
            "address": "高雄市鹽埕區大義街21號",
            "lat": 22.6194324,
            "lng": 120.2849241,
            "id": "1196"
        }
    ]
}